,lat,lon,name,stop_id
0,53.3522443611407,-6.263723218918821,Parnell Square West,2
1,53.352308551434895,-6.26381074216821,Parnell Square West,3
2,53.3525745131874,-6.264175486037931,Parnell Square West,4
3,53.352749335706996,-6.26445380396429,Parnell Square West,6
4,53.352840910580795,-6.2645702612174405,Parnell Square West,7
5,53.353272271484606,-6.26518367657395,Parnell Square West,8
6,53.3533921036497,-6.26538912389949,Parnell Square West,10
7,53.3568152335319,-6.26467919507521,St Joseph's Parade,11
8,53.35710751620461,-6.26438186733525,Upper Dorset Street,12
9,53.358531237878196,-6.2627765057086595,Dorset Street Lower,14
10,53.360266707598896,-6.26097804267247,Innisfallen Parade,15
11,53.3663915571432,-6.3056141835273305,Nephin Road Park,16
12,53.363078324380396,-6.25839928847829,Drumcondra Rail Stn,17
13,53.36585592591911,-6.2559568206783,Dargle Road,18
14,53.3672348759349,-6.25559994097697,Botanic Avenue,19
15,53.3701011992972,-6.254310599044371,DCU St Patrick's,21
16,53.373503609743096,-6.25280375269001,Home Farm Road,22
17,53.3742282800816,-6.25626100416695,Ferguson Road,23
18,53.3751331588865,-6.2603723481231395,Walsh Road,24
19,53.3758994661498,-6.26361773641705,Rathlin Road,25
20,53.379438960013104,-6.26658526125999,Ballymun Road,27
21,53.381578637630504,-6.2660022707773395,Hampstead Avenue,28
22,53.383488252948204,-6.26566910125412,Albert College Park,29
23,53.370331900195104,-6.30460116922909,Ventry Park,30
24,53.3860332259168,-6.2688580772749605,St Pappin's Road,31
25,53.386195568076104,-6.27137720104136,Stormanstown Road,32
26,53.3887179243081,-6.271771141224459,Glasnevin Drive,33
27,53.3862067871037,-6.270910692540951,Dean Swift Road,35
28,53.3861268504134,-6.2678770697833395,Maolbuille Road,36
29,53.385346401196394,-6.2648869813179004,DCU Ballymun Road,37
30,53.382236594166095,-6.26550952120501,Hampstead Avenue,38
31,53.3804141869347,-6.265658759065841,The Rise,39
32,53.3766607654531,-6.2646689685279,Stella Avenue,40
33,53.375559268328296,-6.2618580062466505,Home Farm Road,41
34,53.37465027346,-6.2574611897212895,Corpus Christi NS,42
35,53.3738612202293,-6.2539013104338705,Achill Road,43
36,53.373017409122895,-6.2521323032429095,Skylon Hotel,44
37,53.36993643440311,-6.254106940849611,DCU St Patrick's,45
38,53.367131016217606,-6.255258556550079,Botanic Avenue,46
39,53.3639161189952,-6.25729825652797,Drumcondra Rail Stn,47
40,53.36225739012529,-6.25880841233312,Fitzroy Avenue,48
41,53.3600042378903,-6.26085350834049,Dorset Street Lower,49
42,53.3578104088118,-6.26327157246547,Temple Street,51
43,53.3566607792373,-6.26456528204094,Dorset Street Upper,52
44,53.3600144884247,-6.26279128910748,North Circular Road,53
45,53.3602216080572,-6.26590803396304,Mater Hospital,54
46,53.3604116029257,-6.26846957982232,Mountjoy,55
47,53.360759724606396,-6.2763736549140505,Dalymount,56
48,53.360816224294204,-6.27655167484326,Dalymount,57
49,53.3609462458936,-6.28120420246718,Churchview Home,58
50,53.361018010198606,-6.28494256312823,Annamoe Terrace,59
51,53.3612792196503,-6.28936450005441,Quarry Road,60
52,53.366792437295196,-6.292750108058491,Faussaugh Avenue,63
53,53.367088582068796,-6.29523278220332,Faussaugh Ave Church,64
54,53.3672546442408,-6.29805127641295,Dingle Road,65
55,53.3672749883724,-6.3007403455498805,Broombridge Road,66
56,53.36907750804811,-6.30424523466637,Ventry Drive,68
57,53.3713925640956,-6.3033417168952095,Carnlough Road,69
58,53.370257689331,-6.304438805303481,Ventry Park,71
59,53.3689699260271,-6.30426453600159,Ventry Drive,72
60,53.3673915527279,-6.30072067865566,Faussagh Avenue,73
61,53.367200238565594,-6.29549881400774,Faussaugh Ave Church,74
62,53.366547229896796,-6.2913173193678995,Fionnbarra GAA,75
63,53.36130918190471,-6.2895736523468395,Quarry Road,77
64,53.361149215192796,-6.2840658352747,Annamoe Terrace,78
65,53.3610212509784,-6.280795505621481,Churchview Home,79
66,53.3608629632753,-6.2760539615295805,Phibsborough PO,80
67,53.3608757479082,-6.271966626916031,Phibsborough,81
68,53.360797795917904,-6.27154908016377,Phibsborough,82
69,53.36027924982471,-6.26554509616271,Mater Hospital,83
70,53.3601625615987,-6.263701780590969,Leo Street,84
71,53.3739579526161,-6.25191342966416,Wellpark Avenue,85
72,53.3760502204615,-6.25116639066164,Home Farm FC,86
73,53.3767517255744,-6.25488028992455,Clare Road,87
74,53.3772872553016,-6.25769922864556,Walnut Rise,88
75,53.386385531676204,-6.26526567275517,Albert College Court,90
76,53.38842788965079,-6.26540814207678,Ballymun Road NS,91
77,53.3898373340536,-6.264674240361001,Ballymun Library,92
78,53.3923014677522,-6.264152975610089,Gateway Avenue,93
79,53.396034762414,-6.26437695995443,Civic Centre,94
80,53.397773070168505,-6.26771985697008,Balbutcher Lane,102
81,53.3997562075198,-6.276812945025231,Poppintree Parade,104
82,53.402936396684105,-6.281692696469441,Belclare Park,105
83,53.4020356254354,-6.27968361815457,Crannogue Road,107
84,53.397938640963794,-6.26860038147326,Árd Na Meala,110
85,53.3961544015487,-6.26395104030175,Civic Centre,112
86,53.392267962928706,-6.26370325464242,Trinity Comp School,113
87,53.391333322056894,-6.263711229252321,Ballymun Road,114
88,53.387964091989495,-6.265036100481441,Ballymun Road Church,115
89,53.37769346064611,-6.25966673989331,Griffith Lawns,116
90,53.3773659067276,-6.2575457084552095,Walnut Rise,117
91,53.376643001693296,-6.25359209857676,Clare Road,118
92,53.3751904807261,-6.25076574528229,The Village,119
93,53.3990954666878,-6.264086960560401,Nursing Home,126
94,53.3991075304829,-6.263680428239669,Nursing Home,127
95,53.3898903154498,-6.27142293606873,Glasnevin Drive,129
96,53.390092012762004,-6.27418126942501,Glasnevin Park,130
97,53.390385890264795,-6.27834923697204,Willow Park Road,131
98,53.390796927590294,-6.286301509472881,Grove Park Road,133
99,53.3930945913226,-6.28607386543557,Sycamore Road,134
100,53.394380201391705,-6.28985659650005,McKee Road,136
101,53.392316719632596,-6.29263079481428,Clancy Avenue,137
102,53.3899950092694,-6.29180657264737,St Canice's BNS,138
103,53.390445085094,-6.2780912446871,Willow Park Road,141
104,53.3901982852644,-6.2740717219552895,Glasnevin Park,142
105,53.3898767084074,-6.269243369980151,Willow Park Avenue,143
106,53.3750401276344,-6.26509558567463,Na Fianna GAA Club,146
107,53.372480226240995,-6.265830862123599,Tolka Bridge,147
108,53.3706701663492,-6.268068507058199,Mobhi Road,148
109,53.3731385872581,-6.26598446613774,Tolka Bridge,149
110,53.375658846188706,-6.264995283028179,Na Fianna GAA Club,150
111,53.3719552600216,-6.2692938277115,Botanic Gardens,151
112,53.375688505625895,-6.270134439462909,Met Eireann,153
113,53.3772589962536,-6.27555703718647,St Brigid's School,154
114,53.377874249289206,-6.2795755271756795,Old Finglas Road,155
115,53.3786233900883,-6.28166473909488,Tolka Estate,156
116,53.3804116224189,-6.28163782517761,Glasilawn Road,157
117,53.3814819498312,-6.283563954050339,Griffith Road,158
118,53.382783719159605,-6.28283511246103,Griffith Parade,159
119,53.3884303639479,-6.28048792293041,Beneavin Road,164
120,53.3890348746741,-6.28377124881093,Beneavin Park,165
121,53.3895835973705,-6.2863051485736,Beneavin School,166
122,53.390186602137796,-6.28698758531702,Beneavin Road,167
123,53.3892599668895,-6.284423734694379,Beneavin Park,168
124,53.38843393467171,-6.280111909958491,Beneavin Court,169
125,53.3821216123005,-6.28054674839464,Glasnamana Place,173
126,53.3806803549497,-6.28095056210767,Tolka Estate,174
127,53.37842425373321,-6.2815675389551,Northland Grove,175
128,53.37803204197579,-6.279298606078041,Old Finglas Road,176
129,53.3804683765696,-6.276224035153789,Ballygall Rd East,177
130,53.381890263171606,-6.27634698261821,Fitzmaurice Road,178
131,53.3803034312785,-6.27600521980129,Ballygall Rd East,179
132,53.3771498433788,-6.2742237068618705,Cremore Avenue,181
133,53.375656766824505,-6.2698050597086,Met Eireann,182
134,53.3723159291239,-6.268753184860341,Botanic Gardens,183
135,53.369703681984994,-6.268979354499249,Botanic Road,184
136,53.3681009359885,-6.27002113927779,St Teresa's Place,185
137,53.3653553426373,-6.27158997755113,Lindsay Grove,186
138,53.3627342523627,-6.2724473653382695,Phibsborough Road,187
139,53.3601206877577,-6.272583149150059,North Circular Road,188
140,53.3571674394906,-6.27346881555335,Fire Station,189
141,53.355125730416795,-6.2733710740057,Broadstone,190
142,53.355017948577796,-6.26903378050287,Western Way,191
143,53.3563972112382,-6.2680764696391,Mountjoy Street,192
144,53.391196305981,-6.2941040348739,Finglas Park,193
145,53.355040649554205,-6.2699793110377,Western Way,194
146,53.355011777879,-6.27357097973092,Broadstone,195
147,53.356883899293,-6.27375070406949,Fire Station,196
148,53.358952631614294,-6.273231373511679,Monck Place,197
149,53.361625382881,-6.272837810416559,Phibsborough SC,198
150,53.3636218115005,-6.2722912462251506,Munster Street,199
151,53.3674226926335,-6.271596443937969,Prospect Way,200
152,53.3682910986623,-6.270118626910759,Botanic Road,201
153,53.3700800875522,-6.26890397753371,Fairfield Road,202
154,53.3763927937161,-6.25001002810668,Whitehall College,203
155,53.3795883575696,-6.246662192737559,Highfield Hospital,204
156,53.38137532693979,-6.2453260469946805,Iveragh Road,205
157,53.3835460890355,-6.24747670792423,Collins Avenue West,206
158,53.38482163073879,-6.24987478276797,Larkhill Road,207
159,53.386653930318396,-6.24795040815751,Glendun Road,208
160,53.3872711105316,-6.24591044728037,Larkhill Road,209
161,53.387594081275395,-6.24831772849051,Crestfield Road,210
162,53.3842808561657,-6.24916033059412,Collins Avenue,211
163,53.3831956351303,-6.24625839753317,Whitehall,212
164,53.381449544026005,-6.24487202356891,Iveragh Road,213
165,53.3794084835756,-6.24665455182551,Highfield Hospital,214
166,53.3818722870075,-6.242449429229441,Collins Avenue,215
167,53.3823308174863,-6.238191319693319,Beaumont Road,216
168,53.3843236218457,-6.23680112220441,Grace Park Court,217
169,53.3859238989727,-6.233788324110839,Shantalla Road,218
170,53.387940539658096,-6.24498084117378,Swords Road,220
171,53.3858213105816,-6.23353699415897,Beaumont Road,233
172,53.3849504827269,-6.23482084271798,Beaumont Grove,234
173,53.383296613184605,-6.237249456510531,Collinswood,235
174,53.382024743098405,-6.2381588600378,Yellow Road,236
175,53.3820319328845,-6.2435251997587,Collins Avenue,237
176,53.385654898569896,-6.23201042764994,Coolgreena Road,242
177,53.385780060841704,-6.229539674546929,Lady of Mercy,243
178,53.3849982136881,-6.22349851566411,Skelly's Lane,244
179,53.3844722444229,-6.219566606046059,Whitethorn Crescent,245
180,53.3851504766498,-6.216230877169889,Artane Castle,246
181,53.386976161061796,-6.21450075590271,Ardlea Road,247
182,53.3855645601755,-6.21446963135779,Maryfield Drive,248
183,53.3849335491817,-6.216149744963889,Artane Castle,249
184,53.384419449981394,-6.220245316101299,Skelly's Lane,250
185,53.3848322787477,-6.223219786333059,Elmount Crescent,251
186,53.3855680158399,-6.22796991791535,Lady of Mercy,252
187,53.389945950738706,-6.2243900468539906,Beaumont Hospital,253
188,53.3902652984461,-6.22410611366832,Beaumont Hospital,254
189,53.3855938804217,-6.23153187241737,Coolgreena Road,255
190,53.3540562845357,-6.262853361222219,Parnell Square East,261
191,53.35394696104179,-6.26275264892104,Parnell Square East,262
192,53.353745623497105,-6.26250545398005,Parnell Square East,263
193,53.3535353026736,-6.26225862681687,Parnell Square East,264
194,53.3533615685169,-6.262055380704559,Parnell Square East,265
195,53.350623391533205,-6.260424291634281,O'Connell St Upper,270
196,53.3485963625842,-6.25948541997207,O'Connell St Lower,271
197,53.3514644798942,-6.260780605732889,O'Connell St Upper,272
198,53.3472474159548,-6.25881940153953,O'Connell Bridge,273
199,53.350349083824604,-6.2607208686217,O'Connell St Upper,274
200,53.3774022009268,-6.33179658312853,River Road,276
201,53.3508223258205,-6.26050631978687,O'Connell St Upper,277
202,53.3515608719055,-6.261227335643119,O'Connell St Upper,278
203,53.350131746411705,-6.26060954701661,O'Connell St Upper,279
204,53.3513435349612,-6.26111600843156,O'Connell St Upper,281
205,53.377282623932,-6.32838928381525,Rathbourne Avenue,284
206,53.352170843741,-6.25991061099432,Cathal Brugha Street,286
207,53.349168812324,-6.25560170347432,Irish Life,288
208,53.3490351823495,-6.256298123419381,Abbey St Lower,289
209,53.348950400305206,-6.25664706494075,Abbey St Lower,291
210,53.349199694764,-6.255254959387059,Abbey St Lower,292
211,53.3488581695556,-6.25710145511171,Abbey St Lower,293
212,53.3481432679383,-6.256770126017081,Eden Quay,297
213,53.3482006633767,-6.25639226781078,Eden Quay,298
214,53.34824184744821,-6.256135235663309,Eden Quay,299
215,53.348299240860996,-6.255757375774619,Liberty Hall,300
216,53.3479883676024,-6.25662624092321,Eden Quay,301
217,53.3480380961838,-6.25633882037526,Eden Quay,302
218,53.34805999809301,-6.25599245267002,Eden Quay,303
219,53.3345770894681,-6.28008746416517,O'Donovan Road,307
220,53.336771188956796,-6.2795336569240305,Oscar Square,308
221,53.3378498917986,-6.2789195881599005,Ardee Street,309
222,53.3454764728287,-6.26620615548425,Wellington Quay,312
223,53.3469069007469,-6.26197249771067,Bachelors Walk,313
224,53.3470973047636,-6.2614690836473,Bachelors Walk,315
225,53.346525944452104,-6.259269366244769,Westmoreland Street,317
226,53.346417713119294,-6.25924373595412,Westmoreland Street,318
227,53.3462744267355,-6.25927961394872,Westmoreland Street,319
228,53.3456456323913,-6.25930523253443,Westmoreland Street,320
229,53.404254992466896,-6.265350845321809,Gulliver's Retail Pk,322
230,53.3466970502557,-6.25990825953705,Aston Quay,325
231,53.3465535364808,-6.260544947224551,Aston Quay,326
232,53.34634998364321,-6.2613793338963095,Aston Quay,328
233,53.346318864463704,-6.2617110397058,Aston Quay,329
234,53.34669223659329,-6.25834636399192,D'Olier Street,333
235,53.346581156207506,-6.25812559112211,D'Olier Street,334
236,53.3463614054442,-6.25784917048533,D'Olier Street,335
237,53.3462516394318,-6.25771846673942,D'Olier Street,336
238,53.3460128066393,-6.25613609916839,Townsend Street,340
239,53.3455641183199,-6.256800260758129,College Street,342
240,53.3454758154714,-6.25629319407125,Pearse St Garda Stn,345
241,53.3455443981674,-6.2566809076364995,Pearse St Garda Stn,346
242,53.34563194158421,-6.24976824959419,Prince's St South,350
243,53.3434182647933,-6.24530817378356,Erne Street,351
244,53.342989145805596,-6.242412139989849,Pearse Square,352
245,53.3426158463834,-6.23964903171018,Grand Canal Quay,353
246,53.34223582802,-6.23643568982665,Ringsend Road,354
247,53.341817347783795,-6.233058790692941,Ringsend Garage,355
248,53.3419030234443,-6.22671744313459,Ringsend,356
249,53.3391710439696,-6.2231214748985195,Irishtown Road,357
250,53.338612780739496,-6.223054582534161,Irishtown Road,371
251,53.335488146952706,-6.219655671448951,Star of the Sea,372
252,53.3342753312741,-6.217889272596481,Farney Park,373
253,53.3332284399034,-6.216401342119171,Sandymount,374
254,53.3340611346546,-6.21438451306244,Dromard Terrace,375
255,53.3307125262278,-6.20925426461614,Lea Road,376
256,53.328728929233506,-6.2088418953406705,Gilford Road,377
257,53.3256502919051,-6.2073344720141606,Sandymount Tower,378
258,53.3247260855166,-6.20923477230433,St John's Road,380
259,53.3243237661094,-6.21237419337661,St John's Church,381
260,53.3250628541644,-6.20771940485297,St John's Road,382
261,53.3286049757757,-6.20896719963214,Gilford Road,383
262,53.331633952394895,-6.2101616048599,Lea Road,384
263,53.33235102312079,-6.211227687939969,Newgrove Avenue,385
264,53.332499510202105,-6.21574105767743,Sandymount,387
265,53.3345088619679,-6.218480172552071,Farney Park,388
266,53.335290081799,-6.21963388936857,Star of the Sea,389
267,53.337629913787296,-6.2222394793376505,Tritonville Road,390
268,53.340063855474995,-6.2239253518331905,Bath Street,391
269,53.341733631169205,-6.22741532105916,Ringsend,392
270,53.33690388771971,-6.222374796852571,Tritonville Road,393
271,53.341940053567804,-6.2352764544162795,Ringsend Road,395
272,53.3424615903765,-6.239550255947879,Grand Canal Quay,396
273,53.342785555443,-6.242015007307559,Pearse Square,397
274,53.343294935038394,-6.24547844686784,Erne Street,398
275,53.34386682210871,-6.248308601432201,Pearse Station,399
276,53.344846483913,-6.25320984701663,Shaw Street,400
277,53.34266333251289,-6.256347892394249,Nassau Street,404
278,53.342481689184,-6.2556043726642505,Nassau Street,405
279,53.3426061451661,-6.2561249457825605,Nassau Street,406
280,53.3483795866704,-6.253876505995059,Custom House,407
281,53.34097078262629,-6.250019239576369,Merrion Sq North,408
282,53.3401367313194,-6.247695595569709,Holles Street,409
283,53.338813450866006,-6.24389039032323,Mount Street Lower,410
284,53.338117119223696,-6.24177155350135,Mount Street Bridge,411
285,53.3352555102392,-6.237279319056151,Haddington Road,412
286,53.3340941933076,-6.236546394051469,Lansdowne Park,413
287,53.3315738058974,-6.23447321695269,Lansdowne Road,414
288,53.3303378154095,-6.23294774966432,American Embassy,415
289,53.328639920120104,-6.22936956914697,RDS Ballsbridge,416
290,53.32769958565329,-6.22597042048849,Merrion Road,417
291,53.325719810514094,-6.223395297526129,British Embassy,418
292,53.323995105844496,-6.22044950312346,Shrewsbury Park,419
293,53.321910801291295,-6.217503921727429,Merlyn Road,420
294,53.32000517942429,-6.214491120422361,Merrion View Avenue,421
295,53.318064191865794,-6.21032428070776,St Vincent's Hosp,422
296,53.317148504137,-6.20740565828112,Herbert Avenue,423
297,53.3153943802017,-6.20372686621338,Merrion Gates,424
298,53.315751526373504,-6.2047625227325796,Merrion Gates,476
299,53.31686305468511,-6.2069523200932695,Herbert Avenue,477
300,53.318114298918296,-6.21126782530883,St Vincent's Hosp,478
301,53.319143967623795,-6.21340128669965,Merrion Centre,479
302,53.32084997999001,-6.216287205367651,Netherlands Embassy,480
303,53.3223446397574,-6.21826644297952,Wanderers FC,481
304,53.3247277780876,-6.22196529496766,Shrewsbury Road,482
305,53.3259441074967,-6.223971480523231,British Embassy,483
306,53.3282515101299,-6.22863497077614,RDS Ballsbridge,485
307,53.3308552893834,-6.2339023083720395,American Embassy,487
308,53.333098554631995,-6.236076947011019,Lansdowne Park,488
309,53.334942003147795,-6.237352312656149,St Mary's Rd South,489
310,53.336573841915396,-6.23890680600162,Haddington Road,490
311,53.33781405351171,-6.24133351088669,Mount Street Bridge,491
312,53.3385846851446,-6.24361446215904,Mount Street Lower,492
313,53.3398534163799,-6.24737682273893,Holles Street,493
314,53.341435583359,-6.25168225233912,Clare Street,494
315,53.3435913198155,-6.24974670516899,Pearse Station,495
316,53.3494968761366,-6.2522235786816,Busáras,496
317,53.3505260754016,-6.25069434322377,Connolly,497
318,53.357450338618605,-6.249088626862191,Summerhill Parade,499
319,53.359036076320294,-6.246289155281779,Ballybough Road,500
320,53.3607056846908,-6.24369637425139,Clonliffe Avenue,501
321,53.360601349361495,-6.24332503950189,Ballybough Road,509
322,53.3591893775426,-6.245711927237361,Charleville Avenue,510
323,53.3575155897157,-6.248635233370191,Summerhill Parade,511
324,53.35521196298411,-6.25397276810393,Rutland Street,513
325,53.3535348728268,-6.24809240079494,Portland Row,515
326,53.3556839194156,-6.24570568436261,North Strand Road,516
327,53.358904162431,-6.24099094394505,Waterloo Avenue,518
328,53.3603387601192,-6.239534528658919,North Strand Road,519
329,53.3616370470509,-6.237978460685481,Annesley Bridge Road,521
330,53.3632889490314,-6.23541597469792,Fairview,522
331,53.36428545371471,-6.23169333166141,Marino College,523
332,53.364960873513695,-6.226330911163111,Howth Road,525
333,53.366869572150705,-6.22111227858026,Copeland Grove,526
334,53.3680198762304,-6.21267888054439,St Lawrence Road,527
335,53.3692640807,-6.20993674463172,Castle Grove,528
336,53.3705774149481,-6.20761234516723,Collins Avenue,529
337,53.3712245323475,-6.20402332968275,Killester,530
338,53.3732509125134,-6.20130788472607,The Demesne,531
339,53.375802080406196,-6.19347468575645,The Meadows,532
340,53.3775832778058,-6.18705613952435,Ennafort Park,533
341,53.3787502415627,-6.1816402899894,Cill Eanna,534
342,53.3802570730373,-6.177306957113661,Raheny,535
343,53.380423756711,-6.17351172677598,Raheny Library,536
344,53.3799012003082,-6.168152634977179,Avondale Park,537
345,53.3801380645897,-6.164264183188469,Maywood,538
346,53.380673661813,-6.159355641537499,Foxfield,539
347,53.3813362763715,-6.15511794353322,Blackbanks Coast,540
348,53.381872707753296,-6.152028068446571,James Larkin Road,541
349,53.3836619200484,-6.1462679499289905,Blackbanks,542
350,53.3841675899819,-6.1446824866416,Kilbarrack Road,591
351,53.3827330098133,-6.14838287246937,James Larkin Road,592
352,53.3818486949724,-6.151638257164099,Blackbanks,593
353,53.38116336556029,-6.155561362132549,Howth Road,594
354,53.3805999504448,-6.15923856299824,Foxfield,595
355,53.38025284332729,-6.16179397207683,The Old Shieling,596
356,53.379898135843604,-6.165612355367269,Maywood,597
357,53.379846629562905,-6.1692823774202505,Avondale Park,598
358,53.380300318921,-6.17308107835297,Raheny Library,599
359,53.3802479252415,-6.1761198105253206,Raheny,600
360,53.3792234833207,-6.17966599663786,Cill Eanna,601
361,53.3781425247933,-6.1830490710098305,Wade's Avenue,602
362,53.3773821590119,-6.18742542966489,Ennafort Park,603
363,53.3763546440125,-6.190790859734401,Ennafort Road,604
364,53.3756666621091,-6.193435326606389,The Meadows,605
365,53.3747089784039,-6.19786466034232,St Bridgets Church,606
366,53.3725157799941,-6.2020302137195005,The Demense,607
367,53.371078384466294,-6.204465314765559,Killester,608
368,53.3698375440806,-6.2086202564896205,Castle Grove,609
369,53.3683623013095,-6.211537455274321,Ashbrook,610
370,53.3667546791219,-6.2188329221112895,Hollybrook Park,611
371,53.3657562265207,-6.22420912998324,Copeland Avenue,612
372,53.364617470991895,-6.226810998384559,Marino Crescent Park,613
373,53.3636380024156,-6.23349323029591,Fairview,614
374,53.3619064164568,-6.23735129893029,Annesley Bridge,615
375,53.35984471380571,-6.23955489630255,Nth Strand Fire Stn,616
376,53.3578945210736,-6.24200909637442,Strandville Avenue,617
377,53.35610117796929,-6.244742067603201,Newcomen Bridge,618
378,53.354044625043,-6.24730533351979,Amiens Street,619
379,53.350961094443704,-6.252779556903441,Talbot Street,620
380,53.350517775917595,-6.25626764847559,Talbot Street,621
381,53.38018530713321,-6.18912523804644,Ribh Road,624
382,53.3817875653858,-6.18632129728294,Lein Gardens,625
383,53.3844945184184,-6.184056419159,Edenmore Green,626
384,53.38540701702029,-6.18200303261629,Edenmore Green,627
385,53.3869549963236,-6.1839065792035495,Edenmore Grove,628
386,53.3865279695261,-6.18596942471487,Edenmore Drive,629
387,53.3872439958543,-6.1893217522728206,Springdale Road,630
388,53.3896443404853,-6.18935518044474,Tonlegee Drive,633
389,53.3902751966557,-6.184141109209981,Tonlegee Avenue,634
390,53.3890225360691,-6.18392380127641,Glenwood Road,635
391,53.3888586595197,-6.18674234809091,Glenfarne Road,636
392,53.3877918262056,-6.18988485424514,Springdale Road,637
393,53.3867623213274,-6.18837999607747,Edenmore Avenue,638
394,53.3863330185355,-6.1867444607558895,Edenmore Park,639
395,53.3867053852028,-6.18345113980018,Edenmore Grove,640
396,53.38582638284839,-6.182391081461871,Edenmore Green,641
397,53.3847318483083,-6.18311422897609,Edenmore Green,642
398,53.3835661358844,-6.183885468341019,St Josephs Hospital,643
399,53.3823625142349,-6.185710576646089,Lein Park,644
400,53.3801688019276,-6.188629880486209,Ribh Road,645
401,53.3762836659138,-6.18966656708737,All Saints Road,649
402,53.37540285373711,-6.185525483233781,Sybil Hill Avenue,650
403,53.37547945077479,-6.17993090906123,All Saints Park,651
404,53.3794630466278,-6.1753416389621405,Raheny,653
405,53.379210075801296,-6.177020980830701,Watermill Road,654
406,53.377738671387995,-6.1754304023287405,Watermill Drive,655
407,53.3764702007995,-6.17770919175959,St Anne's Avenue,656
408,53.3755453978811,-6.17895111704471,All Saints Park,657
409,53.374980048484794,-6.18313861991678,All Saints Road,658
410,53.375237440683605,-6.185878213489831,Sybil Hill Avenue,659
411,53.3747192481277,-6.21950756213928,Donnycarney Church,664
412,53.3724663177962,-6.22212646122617,Casino Park,665
413,53.370233124124205,-6.22426334784648,Mount Temple School,666
414,53.3679816454687,-6.226986846511361,Brian Road,667
415,53.3645749808616,-6.2293973168947,Marino Crescent Park,668
416,53.3663170047536,-6.2286789053178,Malahide Road,669
417,53.3689561148113,-6.226029663892049,Mount Temple School,670
418,53.370716841971294,-6.224153053155121,Nazareth House,671
419,53.37346635003139,-6.22107782075331,Donnycarney Road,672
420,53.352858137718705,-6.248525759477019,Buckingham St Lower,675
421,53.375038059853495,-6.19703913201497,St Brigid's Church,709
422,53.3811136996541,-6.17572202474458,Raheny Station,722
423,53.384151788006804,-6.17572742205121,Raheny Road,723
424,53.386955462943405,-6.174510011408991,Grange Park Road,724
425,53.3895723720669,-6.1704888112674805,Ardscoil La Salle,725
426,53.39174835142529,-6.16761378066958,Grange Road,726
427,53.393704851866595,-6.16683802482064,Ardara Avenue,727
428,53.395316210686204,-6.163490594723691,Holy Trinity Church,728
429,53.3965584588012,-6.16244459517583,Holy Trinity NS,729
430,53.398166697731895,-6.16181886879412,Grangemore Road,730
431,53.3976003550339,-6.16181320548635,Grange Road,738
432,53.3951450858632,-6.16346788917255,Holy Trinity Church,739
433,53.393141277624906,-6.16701261526435,Ardara Avenue,740
434,53.39190772522429,-6.16745657119044,St Donagh's Road,741
435,53.3898234138486,-6.16986158795105,Raheny Road,742
436,53.388024863805796,-6.17273523820554,Woodbine Park,743
437,53.385092198803996,-6.1749204843706,Belmont Park,744
438,53.3813435656084,-6.17547167673021,Raheny Station,745
439,53.3401536166397,-6.255594281533459,Kildare Street,746
440,53.339930803028004,-6.255723518735921,Kildare Street,747
441,53.338509534397105,-6.25503066600713,Huguenot Cemetery,748
442,53.33762070095321,-6.25080214718473,Baggot St Lower,749
443,53.3365710800776,-6.24848750327109,Fitzwilliam Street,750
444,53.335320547927296,-6.246571635527509,Herbert Street,751
445,53.333671654235296,-6.24446202003109,Baggot St Upper,752
446,53.332453390271795,-6.24352105457139,Waterloo Road,753
447,53.330783782374,-6.24428032727376,Burlington Road,754
448,53.328828045698096,-6.24514136798765,Wellington Lane,755
449,53.3263997617809,-6.24259874670305,Royal Hospital,756
450,53.324081337159,-6.239586509859331,Donnybrook Village,757
451,53.32268694295529,-6.237677380431499,Victoria Avenue,758
452,53.320348850844795,-6.2333455168372796,Donnybrook Stadium,759
453,53.318330187289,-6.23056195593035,Donnybrook Church,760
454,53.3161004007996,-6.22748721370695,Teresian School,761
455,53.3145170648506,-6.224370944064879,RTE,762
456,53.3123201447844,-6.2211003190802,Belfield Court,763
457,53.311901092317804,-6.22132785711797,Belfield Court,769
458,53.314636187562506,-6.22573181130967,RTE,770
459,53.315880069244,-6.227781522427981,Teresian School,771
460,53.318485257456395,-6.23132106360088,Donnybrook Garage,772
461,53.3199163484799,-6.23327331931076,Donnybrook Road,773
462,53.3216121235643,-6.235499996419691,Donnybrook Garda Stn,774
463,53.3234897098062,-6.23908544721608,Donnybrook Village,775
464,53.3254792402838,-6.241735821060701,Morehampton Terrace,776
465,53.3269721601116,-6.24362614364866,Royal Hospital,777
466,53.3286887363318,-6.24544736264849,Waterloo Road,779
467,53.3310633511706,-6.244343918212019,Burlington Road,780
468,53.3326262714266,-6.24366410261758,Baggot Street,781
469,53.3335838144594,-6.24460076754328,Baggot St Upper,782
470,53.3353085373768,-6.246977563969799,Baggot St Lower,783
471,53.3364567280923,-6.2486573714650895,Fitzwilliam Street,784
472,53.3371058976042,-6.25185937348658,Pembroke St Lower,785
473,53.3351467148295,-6.2561740357725295,Embassy of Malta,786
474,53.3392943719705,-6.2583024730144,Stephen's Green Nth,790
475,53.3388796212347,-6.2569828304902195,Stephen's Green Nth,791
476,53.34044898815289,-6.2585858084511505,Dawson Street,792
477,53.340859786031196,-6.25840386924726,Dawson Street,793
478,53.3587400433,-6.26972427815321,Berkeley Road,795
479,53.3600182144458,-6.26985278581187,Berkeley Road,796
480,53.3607260028228,-6.2746621647210095,Phibsborough PO,797
481,53.35947663614451,-6.27964070094012,Rathdown Road,798
482,53.358868710012295,-6.28173855104542,Charleville Road,799
483,53.358065151525295,-6.284610428948059,Annamore Parade,800
484,53.3574704998135,-6.28763908243526,Annamore Road,801
485,53.356498322495,-6.29129872279029,Drumalee,802
486,53.3547130307126,-6.2940442138599595,Oxmantown Road,803
487,53.3536849851876,-6.295692680533481,O'Devaney Gardens,804
488,53.3515565121175,-6.297700386084469,Phoenix Park,807
489,53.353994669521704,-6.29534982649483,North Circular Road,808
490,53.35526073980721,-6.293376346249469,Marlborough Road,809
491,53.357099860159295,-6.28999764127668,Ellesmere Avenue,810
492,53.3575671567889,-6.2874849681966305,Annamore Road,811
493,53.3582663606545,-6.2842267437379595,Annamore Parade,812
494,53.35919004609939,-6.28095937438318,Charleville Road,813
495,53.36054001513929,-6.2760970492999,St Peter's Church,814
496,53.3596462179702,-6.269612438447651,Mater Hospital,817
497,53.3584811208105,-6.26922394483129,O'Connell Avenue,818
498,53.3563040208513,-6.26599198569768,Blessington Street,819
499,53.36196779514621,-6.2935139795842305,Carnlough Road,820
500,53.364551903506495,-6.293831436354379,Drumcliffe Road,821
501,53.3671206776284,-6.291820321104269,Mulroy Road,822
502,53.3682351539515,-6.29118965054409,Kilkieran Road,823
503,53.369747851895596,-6.2932630949611505,Bannow Road,824
504,53.370429439934505,-6.29693282591368,St Finbar's Road,825
505,53.3712178543801,-6.301169507559139,Carnlough Road,826
506,53.3712939490676,-6.30399186938362,Ventry Park,827
507,53.3710448241129,-6.29974867792338,Broombridge Station,828
508,53.3703968945613,-6.29591219523139,St Finbar's Road,829
509,53.3696243716589,-6.2921709801525,Bannow Road,830
510,53.3676619691102,-6.291332812909009,Mulroy Road,831
511,53.363629454606105,-6.2940636348917005,Drumcliffe Road,832
512,53.3617761473218,-6.293311283839639,Swilly Road,833
513,53.3619754108391,-6.26042763798583,Binns Bridge,834
514,53.362628016637295,-6.26327096161364,St Brigid's Rd Lower,835
515,53.3632915018077,-6.26624916236241,Claude Road,836
516,53.3637784077139,-6.26821283704861,David Road,837
517,53.36431939611871,-6.27018939098137,Whitworth Road,838
518,53.363744920420295,-6.26776341253996,David Road,839
519,53.3632433495651,-6.26540966607283,Claude Road,840
520,53.362122199530795,-6.26063201536309,St Patrick's Road,841
521,53.337251975008606,-6.256313389204941,Stephen's Green East,842
522,53.337002431423706,-6.25645872069955,Stephen's Green East,843
523,53.3376318720612,-6.25586239848744,Stephen's Green East,844
524,53.3354534454667,-6.2562516182653605,Leeson St Lower,845
525,53.33345373300239,-6.25411090847852,Fitzwilliam Place,846
526,53.331601445165205,-6.2522196196517195,Leeson St Upper,847
527,53.329727990818206,-6.24888799835484,Sussex Road,848
528,53.3278982725913,-6.24792700914128,Appian Way,849
529,53.3260857395333,-6.2511990311679195,Chelmsford Road,850
530,53.3250997052131,-6.2532210160293795,Chelmsford Road,851
531,53.3244292664946,-6.252858085370799,Ranelagh,852
532,53.32259277000811,-6.2483695770726,Sandford Road,853
533,53.3216316712804,-6.246577563215129,Larch Grove,854
534,53.319302298458204,-6.2428153659171794,Sandford Road,855
535,53.3176551118177,-6.24082667970814,Clonskeagh Road,856
536,53.316567380099,-6.2383798303354,Clonskeagh Hospital,857
537,53.3140944728148,-6.2383015721787505,Clonskeagh,858
538,53.3145635684128,-6.23841733156693,Clonskeagh,881
539,53.316704656538896,-6.239154676493009,Clonskeagh Hospital,882
540,53.3176851573317,-6.2410355833142805,Eglinton Road,883
541,53.319996991216605,-6.2442128444278895,Norwood Park,884
542,53.3212589673343,-6.24629262123036,Hollybank Ave Lower,885
543,53.322597396225206,-6.24868463259578,Merton Drive,886
544,53.3242077457424,-6.2524618068015805,Ranelagh,887
545,53.3780271155011,-6.26159214988754,Lambay Road,89
546,53.3160725163387,-6.259158180064159,Cowper Road,893
547,53.3151931375359,-6.2641919805122495,Cowper Road,894
548,53.31393226426021,-6.26401801846624,Palmeston Villas,895
549,53.3133721496325,-6.26135424684804,Palmerston Park,896
550,53.3142996202644,-6.258389846018339,Palmerston Road,897
551,53.3255834292566,-6.2524956567373895,Chelmsford Road,903
552,53.3274174409139,-6.248847515740731,Appian Way,904
553,53.3288107659747,-6.247634377275361,Leeson St Upper,906
554,53.3297193588591,-6.25075010860462,St Johns Ambulance,907
555,53.3311542855373,-6.25237303421837,Grand Parade,908
556,53.3331476599204,-6.25407836385524,Fitzwilliam Place,909
557,53.389831802114,-6.1529011457283,Naomh Barróg GAA,956
558,53.3909165331514,-6.16378528809514,St. Donagh's,958
559,53.3910184657041,-6.166908375989389,Grange Road,959
560,53.391157619904796,-6.171879305620049,Tonlegee Road,960
561,53.391056829993495,-6.17645454975119,Millwood Villas,961
562,53.3907949286244,-6.18285597422979,Limewood,962
563,53.395682456418704,-6.21548963822034,Northside SC,969
564,53.3969960428868,-6.23492379932207,Aulden Grange,972
565,53.389804569149106,-6.30303046268453,Finglas Sports Centre,980
566,53.3897809067965,-6.30706083246075,Finglas Garda Stn,981
567,53.3901416743217,-6.31095569222059,Mellowes Road,983
568,53.389911388028004,-6.30675494955134,Finglas Garda Stn,984
569,53.3899247513554,-6.303897725236091,Finglas Sports Centre,985
570,53.390219926864205,-6.29937538551073,Finglas,987
571,53.3977025969998,-6.22922517485573,Astro Park,993
572,53.39095140659099,-6.181917083423031,Limewood,1005
573,53.335481505514004,-6.257556880720121,Earlsfort Terrace,1013
574,53.3327303534192,-6.25996635506881,Adelaide Road,1015
575,53.331159314190295,-6.264414580355071,South Richmond St,1016
576,53.329299651161605,-6.26447506533579,Rathmines Rd Lower,1017
577,53.327585459093505,-6.26464974527369,St Mary's College,1018
578,53.32654759762361,-6.26497711774675,Military Road,1019
579,53.3251383837983,-6.265109364479611,Rathmines,1020
580,53.321380246609706,-6.26565212597855,Rathmines Rd Upper,1021
581,53.3195217438279,-6.26455667416159,Summerville Park,1022
582,53.31704618902079,-6.26491228899517,Rathmines Close,1023
583,53.315852343077204,-6.26502075611143,Frankfort Avenue,1024
584,53.3115998654618,-6.26247682304632,Trinity Hall,1025
585,53.3091057707881,-6.260327082197371,Orwell Park,1026
586,53.3087379400355,-6.25791094112812,Dodder Walk,1027
587,53.30849911056129,-6.255714681121451,South Hill,1028
588,53.308259634182605,-6.25531926586885,South Hill,1062
589,53.308572081541904,-6.25886311823074,Dodder Walk,1063
590,53.3094291383477,-6.2609292205889595,Dartry Road,1064
591,53.3118290249026,-6.26278268022837,Trinity Hall,1065
592,53.313753480585206,-6.26408530832734,Rathmines Rd Upper,1066
593,53.3170507712305,-6.26522730644194,Rathmines Close,1067
594,53.32055844472141,-6.26538523670879,Church Avenue,1068
595,53.3232852636138,-6.265619895412691,Swan Centre,1069
596,53.3249801839839,-6.2653559829168,Rathmines,1070
597,53.327218036168205,-6.264724711694889,St Mary's College,1071
598,53.3310269732615,-6.2645851139549995,South Richmond St,1072
599,53.33379545952501,-6.26397720072462,Harcourt Luas,1074
600,53.3231305919137,-6.265491062608781,Swan Centre,1076
601,53.3215729885363,-6.266544984992059,Rathmines Garda Stn,1077
602,53.3194127648961,-6.2688090703569195,Rathgar Place,1078
603,53.316654624195,-6.270751874268769,Frankfort Avenue,1079
604,53.314909198719995,-6.271873063496421,Auburn Villas,1080
605,53.312649702858494,-6.2734951734876905,Rathgar Village,1081
606,53.3116759487051,-6.27577063203848,Terenure Road East,1082
607,53.311145561261206,-6.27825325307522,Brighton Road,1083
608,53.3100994852269,-6.2823773139730195,St Joseph's BNS,1085
609,53.309669570516995,-6.2856060830046,Terenure Road West,1086
610,53.3103351137706,-6.289391260075161,Greenlea Rd,1087
611,53.31097358878571,-6.293177632557139,Parkmore Drive,1088
612,53.311655585547896,-6.29750266095145,Lavarna Grove,1089
613,53.311890649860295,-6.298228687986981,Terenure Road West,1117
614,53.3113669927809,-6.294917828277759,Hazelbrook Road,1118
615,53.3109356902429,-6.29241376344748,Parkmore Drive,1119
616,53.31019810523151,-6.287986059303599,Terenure Garda Stn,1120
617,53.309001597638996,-6.28540774793678,Templeogue Road,1121
618,53.307219634287904,-6.288375352529,Rathdown Park,1122
619,53.3055770247362,-6.29103703014003,Lakelands Park,1123
620,53.3041728176727,-6.29340389752316,Terenure College,1124
621,53.3023902202114,-6.29634084228481,Bushy Park House,1159
622,53.3043935295039,-6.29312500171524,Terenure College,1160
623,53.30606313614861,-6.29046240113905,Lakelands Park,1161
624,53.3077322505985,-6.28776959714466,Rathdown Park,1162
625,53.3088733210509,-6.285863091797,Terenure Library,1163
626,53.310411636112,-6.28158440093588,Terenure Road East,1164
627,53.3117124365726,-6.2764295038561,Brighton Road,1165
628,53.3138905067959,-6.272904784053909,Winton Avenue,1166
629,53.3159449091969,-6.27139594843825,Garville Avenue,1167
630,53.3179291684229,-6.270009882564301,Spire View Lane,1168
631,53.320056264563796,-6.2685578599023195,Rathmines Park,1169
632,53.3216895475268,-6.26652524878682,Rathmines Garda Stn,1170
633,53.3503176870278,-6.25426294905816,Gardiner Street Lwr,1171
634,53.3517433497818,-6.255256217327019,Railway Street,1172
635,53.3537055683619,-6.25667832329378,Gardiner Street Lwr,1173
636,53.3561865814553,-6.25854512541127,Mountjoy Sq West,1174
637,53.358413194467495,-6.260843182097629,Gardiner Street Upr,1175
638,53.3993550470663,-6.22187780324987,Coolock Lane Park,1176
639,53.4008973630857,-6.225257482808419,Clonshaugh Ind Est W,1177
640,53.40345340969339,-6.2188492428262805,Clonshaugh Ind Est N,1178
641,53.399931149594096,-6.21892118309895,Clonshaugh Ind Est E,1179
642,53.3508599227616,-6.25385022800024,Moland Street,1184
643,53.37636701411451,-6.221513046469259,Oak Road,1185
644,53.3776431058381,-6.226329937860349,Belton Park Road,1186
645,53.3786075086963,-6.231355441132459,Celtic Park Road,1187
646,53.3800184911148,-6.23559608319271,Grace Park Heights,1188
647,53.3801561172424,-6.2357858077938495,Grace Park Heights,1190
648,53.37921718835071,-6.23307384015293,Grace Park Meadows,1191
649,53.3786331967669,-6.23066293111017,Celtic Park Road,1192
650,53.3779921991337,-6.227442768848929,Grace Park Meadows,1193
651,53.3775262086297,-6.22511728190606,Belton Park Road,1194
652,53.3763899322038,-6.2212415396414995,Oak Road,1195
653,53.37804103379229,-6.214438721640099,Elm Mount Road,1196
654,53.3792322771541,-6.211758333003369,Killester Avenue,1197
655,53.3825121951938,-6.20691559067275,Mornington Grove,1198
656,53.384984462780196,-6.2027676144828705,Mask Avenue,1199
657,53.38696264866421,-6.20103048909782,Chanel College,1200
658,53.390789812552605,-6.19614784293635,Brookville Cresent,1201
659,53.3925013826657,-6.1934290504328,Newtown Cottages,1202
660,53.3967263536318,-6.18753567030054,Newtown Road,1203
661,53.40150260488149,-6.181858229286361,Clare Hall,1205
662,53.399705896925106,-6.1842809197153,Belcamp Lane,1218
663,53.381302127091296,-6.208334392068401,Danieli Road,1219
664,53.3787625062963,-6.2121989015381205,Killester Avenue,1220
665,53.376816500074604,-6.21609825408432,Mayfield Park,1221
666,53.3840661618381,-6.2068502818338604,Ardlea Road,1222
667,53.385250619879706,-6.20851435239846,Chanel Avenue,1223
668,53.3866441577972,-6.210936491153481,Maryfield Crescent,1224
669,53.38685937921699,-6.2139042693124695,Maryfield Drive,1225
670,53.3885824619193,-6.2149296761591195,Ardmore Drive,1226
671,53.391137310766794,-6.215078366051429,Castlekevin Road,1227
672,53.3924289765026,-6.21851273726681,Kilbarron Road,1228
673,53.394311601173804,-6.22542628929809,Kilbarron Drive,1229
674,53.3954889982952,-6.22784342643992,Castletimon Road,1231
675,53.395285483527495,-6.230483410014429,Castletimon Park,1232
676,53.3943619874017,-6.2312435009055305,Castletimon Drive,1233
677,53.3946878729395,-6.23261339665838,Ballyshannon Avenue,1234
678,53.3947366847022,-6.225604084189481,Kilbarron Road,1235
679,53.3926786800006,-6.218983472301099,Cromcastle Avenue,1237
680,53.3915662233617,-6.2149100569504405,Kilmore Avenue,1238
681,53.3890041898569,-6.21488195784464,St John of Gods NS,1239
682,53.3868184280309,-6.211169732339469,Maryfield Crescent,1240
683,53.3858794293715,-6.209089308046909,Chanel Avenue,1241
684,53.3844919489066,-6.2070729228125,Ardbeg Road,1242
685,53.394900313149606,-6.19991374132285,Greencastle Avenue,1243
686,53.392907241620904,-6.22044750297315,Cromcastle Green,1244
687,53.397997268691796,-6.206219409556151,Glin Avenue,1245
688,53.3934932334641,-6.222979288564289,Kilbarron Park,1246
689,53.3950810945078,-6.199981297224751,Greencastle Road,1247
690,53.392989335862296,-6.1971675233716,Coolock Ind Estate,1248
691,53.395180964897,-6.20124021736032,Coolock Drive,1249
692,53.3937390061016,-6.20755634582152,Bunratty Road,1250
693,53.3934573359116,-6.22237931759755,St Luke's Church,1251
694,53.3938639430734,-6.21469359247888,Tranquility Grove,1253
695,53.3951173598318,-6.211362996430581,Bunratty Road,1254
696,53.3943535024698,-6.20897407318865,Adare Park,1255
697,53.393630945773204,-6.206944379993369,Bunratty Avenue,1256
698,53.3981874224997,-6.190827135834071,Priorswood Road,1258
699,53.398590409753396,-6.194885484508769,The Link Road,1259
700,53.4001778029103,-6.198818683470969,Ferrycarrig Green,1260
701,53.4020042292143,-6.20490781615746,Moat Avenue,1262
702,53.398221529722,-6.1907053813918305,Marigold Avenue,1265
703,53.4020554115162,-6.20472518436224,Priorswood Road,1266
704,53.4008555065983,-6.20024887014065,Ferrycarrig Park,1267
705,53.399894267545,-6.19789824293475,Belcamp Avenue,1268
706,53.398428959518604,-6.19371931703876,Marigold Road,1269
707,53.3964970026804,-6.18722962380558,Newtown Road,1270
708,53.3928823822332,-6.19187918573735,Newtown Cottages,1272
709,53.3911092146034,-6.19527728871211,Coolock Leisureplex,1273
710,53.3889388170324,-6.19797019366675,St Brendans Church,1274
711,53.385585765333005,-6.20211085795637,Mask Avenue,1275
712,53.3843305541152,-6.202915428661469,Mask Park,1276
713,53.382681460208595,-6.2062169636168,Mornington Grove,1277
714,53.344236622436505,-6.26130011810001,College Green,1278
715,53.344260493598206,-6.26170466649099,College Green,1279
716,53.4001962883511,-6.303143292597509,McKelvey Avenue,1280
717,53.342341795881396,-6.2645010827272705,S Great George's St,1282
718,53.3418087219088,-6.26492822950029,S Great George's St,1283
719,53.338128350968894,-6.26587355723321,Redmond's Hill,1284
720,53.3343784055905,-6.265124754257161,Camden Street Lower,1285
721,53.3324996495011,-6.265726534840749,Harrington Street,1286
722,53.332478372565205,-6.2661177906656595,Synge Street,1287
723,53.3323227536349,-6.2696376223493,Victoria Street,1288
724,53.3321293613202,-6.2730388327702205,Longwood Avenue,1289
725,53.3307310456567,-6.275167318805691,Clanbrassil St Upper,1290
726,53.3284466111575,-6.27631044140605,Harold's Cross Road,1291
727,53.3256246051373,-6.27819570402239,Harold's Cross Park,1292
728,53.3228603639143,-6.279102629732799,Parkview Avenue,1293
729,53.320600026276296,-6.2788033062774895,Lady of the Rosary,1294
730,53.3179148923088,-6.279586817126289,Kenilworth Park,1295
731,53.315562746136706,-6.281647622924741,Mount Tallant Avenue,1296
732,53.3124096124198,-6.28238961414191,Whitton Road,1297
733,53.3107469924743,-6.28302665100765,Terenure,1298
734,53.308395702782,-6.28390135641409,Rathfarnham Road,1299
735,53.3061507463875,-6.28342117670719,Rathdown Park,1300
736,53.30741742435679,-6.28400061997859,War Memorial Hall,1335
737,53.308900905977296,-6.28403115972443,Terenure,1336
738,53.3111790373761,-6.28306934104816,Terenure Road North,1337
739,53.31243038626489,-6.28258388430714,Whitton Road,1338
740,53.3150238623425,-6.28229964697711,Harold's Cross Road,1339
741,53.316470142273296,-6.28099578090545,Mount Tallant Avenue,1340
742,53.319227589464,-6.278993635757309,Kenilworth Park,1341
743,53.3213454991002,-6.27938875924035,Lady of the Rosary,1342
744,53.3226672850436,-6.2794256441173495,Harold's Cross Park,1343
745,53.3271710643832,-6.27760796335834,St Claire's NS,1344
746,53.3287960763055,-6.2762362963887695,Le Vere Terrace,1345
747,53.3311830098588,-6.2753442727446505,Clanbrassil St Upper,1347
748,53.3322495353642,-6.273889832824169,Spencer St South,1348
749,53.332385727906704,-6.27088132287852,Carlisle Street,1349
750,53.3325610927835,-6.26748081181982,Harrington Street,1350
751,53.334445431609794,-6.265407333808239,Camden Street Lower,1352
752,53.3360095336323,-6.265418937999621,Pleasants Street,1353
753,53.339048088889506,-6.266076514857559,Aungier Street,1354
754,53.3400962425911,-6.26583875541442,Whitefriars Street,1355
755,53.342567894408,-6.264597030208121,Exchequer Street,1357
756,53.344304713387295,-6.2628893893907795,Dame Street,1358
757,53.344399406363706,-6.2613685904336105,College Green,1359
758,53.3319833877872,-6.276618277525481,Raymond Street,1360
759,53.3312039603929,-6.279907873522201,National Stadium,1362
760,53.3318459312232,-6.2851672650217,St Anne's Road S,1363
761,53.332345873944206,-6.288060120347019,Dolphin Avenue,1364
762,53.3329015319263,-6.29045531304387,Dolphins Barn Church,1365
763,53.3351498676865,-6.2943145905953495,St Andrews Centre,1366
764,53.3356852929589,-6.29656066348709,Rialto Church,1367
765,53.338867215027506,-6.30224552041048,Mayfield Road,1369
766,53.33918858080179,-6.305251245565901,Hybreasal House,1370
767,53.338876164488106,-6.30793670636019,Suir Road,1371
768,53.3381036945503,-6.30987444642342,Goldenbridge Avenue,1372
769,53.337774759113906,-6.312034865450141,Stephen's Road,1373
770,53.3392177102615,-6.31301407116768,Southern Cross Ave,1374
771,53.3395561606235,-6.312159731856281,Bulfin Road,1375
772,53.339507910587905,-6.30875267180085,South Circular Road,1376
773,53.3391633646071,-6.30474165527077,South Circular Road,1377
774,53.3388278749061,-6.30137608273123,Mayfield Road,1378
775,53.337339701353905,-6.299122653209361,Rialto Luas,1379
776,53.3356410022647,-6.29597679911966,Rialto Church,1380
777,53.3351237466286,-6.29374502629878,St Andrews Centre,1381
778,53.333173170672296,-6.290594602058889,Dolphins Barn Church,1382
779,53.3322710783564,-6.28660666292568,Dolphin Avenue,1383
780,53.331356198185304,-6.28236415375612,Dufferin Avenue,1384
781,53.3318004002752,-6.278262271833039,Griffith College,1385
782,53.32955261862929,-6.28444849901101,Clogher Road,1386
783,53.328040549369895,-6.28680623917289,Aughavanagh Road,1387
784,53.3267732721488,-6.29119578868491,Rutland Avenue,1388
785,53.325935942055104,-6.29549287147593,Pearse College,1389
786,53.324900268239695,-6.31496013722762,Crumlin Pool,1396
787,53.3250914014158,-6.31385670005281,Kildare Road,1397
788,53.3253013793664,-6.31027545066514,Windmill Road,1398
789,53.3251428005791,-6.305432703103699,Monasterboice Road,1399
790,53.3253968158949,-6.29865198476896,Clogher Road,1401
791,53.3259879311191,-6.295986219725339,Pearse College,1402
792,53.3271540648883,-6.289544133366821,Rutland Avenue,1403
793,53.3282005181194,-6.28667972051605,Aughavanagh Road,1404
794,53.3298216746258,-6.28440767368214,Parnell Road,1405
795,53.333152931453895,-6.291691526840951,Dolphin's Barn,1406
796,53.331538502772105,-6.2944436769087995,Crumlin Road,1407
797,53.330366744766906,-6.297358155575839,Loreto College,1409
798,53.3314169223644,-6.29977873066411,Keeper Road,1410
799,53.3320510264275,-6.30328200417231,Brickfield Drive,1411
800,53.3326816543077,-6.305914642678321,Slievenamon Road,1412
801,53.3334413912394,-6.30878249418879,Brickfields Park,1413
802,53.3333476064743,-6.3123148014032395,Benbulbin Road,1414
803,53.3324432485395,-6.316374520925981,Sperrin Road,1415
804,53.331032212794504,-6.31956811898513,Lady Of Mercy School,1417
805,53.330029759237,-6.323060770060541,Cooley Road,1418
806,53.3277177272266,-6.3229112430654695,Brandon Road,1419
807,53.3249994890353,-6.31944492192624,Crumlin Hospital,1423
808,53.3256625125872,-6.31674662153121,Crumlin Hospital,1424
809,53.327013171977704,-6.31819475352092,Cooley Road,1425
810,53.329274878846505,-6.32242977116858,Curlew Road,1426
811,53.330271158414,-6.322330619379031,Mourne Road,1427
812,53.3313588786132,-6.319149884012639,Lady of Mercy School,1428
813,53.332593207169,-6.31617341926301,Sperrin Road,1429
814,53.3335737954755,-6.311149686468741,Belbulbin Road,1430
815,53.3334987403076,-6.308389825738139,Brickfields Park,1432
816,53.3325721532017,-6.305798861992309,Slievenamon Road,1433
817,53.3319924475924,-6.3023233791527,Keeper Road,1434
818,53.331388046270504,-6.29901413246611,Keeper Road,1435
819,53.330884957695204,-6.29651171993402,Herberton Road,1436
820,53.3363829768561,-6.279414136183809,St Thomas Road,1438
821,53.3340584156818,-6.2827660992130605,Rutledge Terrace,1439
822,53.331990059382704,-6.28331465216842,Donore Avenue,1440
823,53.3248749009922,-6.303026333221821,Bangor Road,1441
824,53.3251668742259,-6.30712815477075,Clonard Road,1442
825,53.3451293906946,-6.2695395586260405,Civic Offices,1443
826,53.3450180037747,-6.274260190931059,Merchant's Quay,1444
827,53.345678410254706,-6.27828883961715,Usher's Quay,1445
828,53.346629644517,-6.28817874961114,Victoria Quay,1447
829,53.348152829997,-6.297896094677171,Phoenix Park Gate,1449
830,53.3481554042365,-6.301861413117651,Conyngham Road,1450
831,53.3482782789373,-6.305446444965839,Bridgewater House,1451
832,53.3454209055027,-6.30803799944731,Islandbridge,1452
833,53.3345361691524,-6.30675710143034,Galtymore Road,1453
834,53.337775553029395,-6.30764991026492,Suir Road Luas,1454
835,53.3353851151121,-6.30577746031333,Slievenamon Road,1455
836,53.3348733091399,-6.3089811069230795,Good Counsel GAA,1456
837,53.3353026587009,-6.31264303832715,Benbulbin Road,1457
838,53.3347706199242,-6.316973574849389,Davitt House,1458
839,53.33406331542751,-6.3197192372277,Drimnagh CU,1459
840,53.3323561008265,-6.32103258420219,Carrow Road,1460
841,53.3304629315901,-6.3238245198261,Galtymore Park,1462
842,53.330623994860495,-6.3237731617296,Galtymore Road,1463
843,53.33489880154,-6.316503036703651,Davitt House,1464
844,53.3347967644646,-6.308653787236719,Good Counsel GAA,1465
845,53.3345289258302,-6.30624685358973,Galtymore Drive,1466
846,53.335657376025296,-6.3059618778838,Slievenamon Road,1467
847,53.3375666016205,-6.3074929995443405,Suir Road Luas,1468
848,53.3352591593221,-6.313380538153879,Benbulbin Road,1469
849,53.3455323202016,-6.30828892049287,Islandbridge,1471
850,53.348429467980296,-6.30596616966109,Conyngham Road,1472
851,53.348305978475,-6.29855089897711,Phoenix Park Gate,1473
852,53.347947915960596,-6.292361704640889,Parkgate Street,1474
853,53.3470736855785,-6.28467627539544,Sarsfield Quay,1476
854,53.3456460888719,-6.27294312668559,Four Courts,1478
855,53.3459159600301,-6.26923734421882,Ormond Quay Upper,1479
856,53.345765964654795,-6.2706702977241,Ormond Quay Upper,1480
857,53.3650538686145,-6.23989609720876,Melrose Avenue,1481
858,53.3717085781546,-6.23648064555364,Marino Institute,1482
859,53.3636977091106,-6.23996702932875,Philipsburgh Avenue,1484
860,53.3640458177018,-6.23980241692241,Philipsburgh Avenue,1485
861,53.370974778306106,-6.238524809022,Morrogh Terrace,1486
862,53.3718192548952,-6.236671449963679,Marino Institute,1487
863,53.3710888554265,-6.23468777023618,Turlogh Parade,1488
864,53.3701586652352,-6.231961007602299,Marino Church,1489
865,53.3688768216928,-6.228557661748231,Árd Scoil Rís,1490
866,53.3684677618883,-6.227642909798321,Griffith Avenue,1491
867,53.3702573904224,-6.23255805716228,Marino Church,1492
868,53.371213404461606,-6.23520862720412,Turlogh Parade,1493
869,53.3706730149288,-6.23574194163247,Croydon Park,1494
870,53.368755940571205,-6.23556569739483,Croydon Park Avenue,1495
871,53.367148116615105,-6.23381383826087,Marino Green,1496
872,53.36577948870979,-6.23729658684479,Brian Road,1499
873,53.351039588906005,-6.25016257775473,Connolly,1500
874,53.354028963184206,-6.2578969848713495,Parnell Street,1505
875,53.36677782141889,-6.272373909195241,Finglas Road,1506
876,53.36839052031429,-6.274502691641341,St Vincent's School,1507
877,53.36991090226561,-6.278333551156759,Glasnevin Cemetery,1508
878,53.3729258340444,-6.284223660488269,Slaney Road,1509
879,53.3769069295235,-6.287310237187071,Ballyboggan Road,1510
880,53.378234523180296,-6.28775298457063,Tolka Vale,1511
881,53.382174322341,-6.29172883549392,Prospect Hill,1512
882,53.3894651562236,-6.300021914460549,Drogheda Mall,1514
883,53.366114316144,-6.23319541821684,Marino Park,1515
884,53.3906003885119,-6.31161412406024,Kildonan Road,1518
885,53.3924448695621,-6.3117516179852196,Kildonan Park,1519
886,53.393920198927,-6.31184358657781,Barry Road,1520
887,53.397221299299204,-6.31075049408939,Plunkett Green,1521
888,53.3978788506155,-6.30958155709758,Plunkett Avenue,1523
889,53.3955562648948,-6.310590887143849,Barry Road,1524
890,53.394069295802495,-6.311582061617349,Casement Drive,1525
891,53.392306937033204,-6.311531536625051,Kildonan Park,1526
892,53.3561954281573,-6.294000025729471,St David's Terrace,1528
893,53.388458826929394,-6.298152606897731,Finglas Village,1529
894,53.383743664029595,-6.2933647409308096,Clearwater SC,1531
895,53.38174411723121,-6.29055850090001,Prospect Hill,1532
896,53.3789678847602,-6.287498088002059,Tolka Vale,1533
897,53.3753328391602,-6.28597560287492,Ballyboggan Road,1534
898,53.372305958139705,-6.28236994393795,The Willows,1535
899,53.369503397170895,-6.27687723281354,Glasnevin Cemetery,1536
900,53.3680662049802,-6.273208398936959,St Vincent's School,1537
901,53.384474141314,-6.29479375491459,Clearwater SC,1538
902,53.38313579906821,-6.27919801572368,Glasanaon Road,1539
903,53.384340309979706,-6.28420062884392,Johnstown Park,1540
904,53.39524116581801,-6.30168636640579,McKee Avenue Est,1547
905,53.396110145012706,-6.3027494932782995,Kylemore Bakery,1548
906,53.39743265611429,-6.30663678307133,Plunkett Road,1549
907,53.399817510995206,-6.30305309451753,McKelvey Avenue,1558
908,53.3973411212982,-6.30652011500245,Plunkett Road,1559
909,53.3970075423561,-6.304548381458741,St Margaret's Road,1560
910,53.3844074206099,-6.2838671966122694,Johnstown Park,1566
911,53.3840139569899,-6.28026002177014,Griffith Drive,1567
912,53.3840241647337,-6.3124606624242805,Wellmount Drive,1573
913,53.3855939979934,-6.31287964710483,Cardiffsbridge SC,1574
914,53.387066142573396,-6.31274625802593,Coláiste Íde,1575
915,53.389317405492896,-6.31304812471738,Cappagh Road,1576
916,53.389885808056796,-6.31574701686641,Abbottstown Road,1577
917,53.3903851294561,-6.31801267740448,Ratoath Drive,1578
918,53.3935215772456,-6.323738176628231,Cappagh Hospital,1579
919,53.3927698845672,-6.32205359231625,Cappagh Road,1582
920,53.3898854600317,-6.31508548205004,Abbottstown Road,1584
921,53.3887680197466,-6.3123331449044295,Cardiffsbridge Road,1585
922,53.386525040621606,-6.31261731806409,Coláiste Íde,1586
923,53.383466430316,-6.3117912065006605,Wellmount Drive,1587
924,53.387138791854895,-6.299498213244081,Wellmount Road,1591
925,53.3797209189472,-6.289241605225789,Tolka Valley Road,1592
926,53.378914773396794,-6.29445974940208,Tolka Valley Park,1593
927,53.3807131944326,-6.29766484522035,St Helena's Road,1594
928,53.380739500306504,-6.297618699731821,St Helena's Drive,1595
929,53.38304109530371,-6.30081905725311,St Malachy's NS,1596
930,53.3804552155962,-6.30923466596558,Valeview Gardens,1597
931,53.380242178032,-6.30562044005666,Valeview Drive,1598
932,53.3808997507127,-6.310795416157809,Cardiffsbridge Road,1599
933,53.3835970178885,-6.31276318351177,Deanstown Avenue,1600
934,53.3837454770678,-6.31627504223629,Rathvilly Road,1604
935,53.38037068357799,-6.30644208983682,St Helena's Road,1606
936,53.3821613835455,-6.30342464753533,Dunsink Drive,1607
937,53.383049856855294,-6.29954091872954,St Malachy's NS,1608
938,53.38038423807771,-6.297287139577709,Cloonlara,1609
939,53.3788077072738,-6.29640307065506,Tolka Valley Park,1610
940,53.351257387824404,-6.2737527635737695,Church Street Upper,1614
941,53.3478271653639,-6.2745973323312905,Church Street,1615
942,53.347285072296295,-6.2750247730075,St Michan's Church,1616
943,53.3493312079573,-6.27480696433908,Capuchin Church,1617
944,53.350887058124,-6.27424841870736,Church Street Upper,1618
945,53.3529126950441,-6.27323519870157,Constitution Hill,1619
946,53.383262857290894,-6.24410591269657,Whitehall Church,1620
947,53.386527284436795,-6.2423929664578495,Ellenfield Park,1641
948,53.383947889346,-6.24362672228704,Whitehall Church,1642
949,53.3848022173771,-6.251003095357139,St Aidan's School,1643
950,53.348351063570206,-6.282251726202659,Blackhall Place,1647
951,53.351091367532504,-6.28280248510498,Stoneybatter,1648
952,53.3525701350153,-6.2843804484789905,Manor Street,1649
953,53.3561451797316,-6.294257429955269,St David's Terrace,1654
954,53.356732171849096,-6.2969682741151,Blackhorse Avenue,1655
955,53.357297279002296,-6.29877863774799,McKee Park,1656
956,53.3583921080657,-6.3030769992369695,Dunard Walk,1657
957,53.3619888217461,-6.309515187905999,Skreen Road,1658
958,53.363259965051405,-6.304716699035981,Croaghpatrick Road,1659
959,53.3651865517894,-6.30937355306513,Cabra Garda Station,1660
960,53.3664436172429,-6.3130955377938305,Our Lady's Church,1661
961,53.3675406916971,-6.31759043995829,Baggot Road,1662
962,53.3694085180304,-6.32385863047436,Ashtown Grove,1664
963,53.370657837755296,-6.327701930034761,Kempton,1665
964,53.3715971506497,-6.330595731122051,Ashtown Roundabout,1666
965,53.37086976704921,-6.334501519476,Castleknock Road,1667
966,53.370842740369504,-6.34030355015355,Old Race Course,1668
967,53.3710173888675,-6.33993607589944,Old Race Course,1694
968,53.3710101423775,-6.33425558646772,Ashtown Gate,1695
969,53.3715415173194,-6.32983144331408,Ashtown Roundabout,1696
970,53.3708011457473,-6.32766625894212,Kempton,1697
971,53.3695772972038,-6.32371675132506,Ashtown Grove,1698
972,53.36874360567371,-6.321314995364441,Baggot Road,1699
973,53.367708828058795,-6.31740348546712,Baggot Road,1700
974,53.3665672561436,-6.3129403827243795,Our Lady's Church,1701
975,53.3656108301747,-6.3101381385887,Navan Road Church,1702
976,53.364735399023296,-6.30734783376237,Cabra Garda Station,1703
977,53.3630522662101,-6.305280898672639,Skreen Road,1704
978,53.3621807471622,-6.308470833694071,Ardpatrick Road,1705
979,53.3600698256017,-6.30729237527241,Blackhorse Avenue,1706
980,53.358428266351005,-6.302459572671269,Dunard Walk,1707
981,53.357332354476796,-6.29871714548449,Mc Kee Park,1708
982,53.356868201679,-6.29705299143723,Glenbeigh Avenue,1709
983,53.355569904027604,-6.2917414914794305,Aughrim Street,1710
984,53.354577975491196,-6.2896329015686705,Holy Family Church,1711
985,53.35333391700539,-6.2862425917638,Aughrim Court,1712
986,53.35190782001921,-6.28332547345319,Manor Street,1713
987,53.3506378069393,-6.28188938800197,Stoneybatter,1714
988,53.347711982180606,-6.28218729951852,Blackhall Place,1715
989,53.3657153153797,-6.17444158948892,Clontarf Road,1724
990,53.363760262694505,-6.17707965691359,Doyle's Lane,1725
991,53.36229138967071,-6.17918587611657,Dollymount Park,1726
992,53.3604468636668,-6.18318608956806,Bull Island,1727
993,53.359656274357704,-6.186164596251251,Wooden Bridge,1728
994,53.3584969058401,-6.190315509740469,Clontarf Bus Garage,1729
995,53.3582310907444,-6.19412792894385,Vernon Court,1730
996,53.359076753421796,-6.19655620427261,John the Baptist Ch,1731
997,53.360062910763105,-6.20234423812548,Oultan Road,1732
998,53.360212615517504,-6.206319559758719,Clontarf Baths,1733
999,53.36039096111429,-6.21101490848604,Castle Avenue,1734
1000,53.361143327093494,-6.21443920712782,The Stiles Road,1735
1001,53.3621421815557,-6.21692174662779,St Lawrence Road,1736
1002,53.3628580243677,-6.219716720909691,Alfie Byrne Road,1737
1003,53.3634508756384,-6.22391433414585,Clontarf Rd Pitches,1738
1004,53.363885194633596,-6.22652585924785,Clontarf Station,1739
1005,53.364141616748896,-6.22684578734125,Clontarf Road,1740
1006,53.3631169030887,-6.2208028234690795,Alfie Byrne Road,1741
1007,53.36212579331821,-6.21642658486156,St Lawrence Road,1742
1008,53.3611356864334,-6.2139286665119196,The Court,1743
1009,53.36034863989779,-6.208792977006731,Scoil Uí Chonaill,1744
1010,53.360347079663704,-6.2056978849680995,Clontarf Baths,1745
1011,53.360256519050395,-6.2026666379275595,Oultan Road,1746
1012,53.3593509922763,-6.1968601414526905,John the Baptist Ch,1747
1013,53.3582570201159,-6.193465761821849,Fortview Avenue,1748
1014,53.3585903733516,-6.190551940152731,Clontarf Bus Garage,1749
1015,53.3688677027289,-6.17780832862961,St Anne's Park,1750
1016,53.3598698762831,-6.1854343270318,Wooden Bridge,1751
1017,53.361127591709995,-6.18184991858559,Bull Island,1752
1018,53.36272396285,-6.1786715731810595,Dollymount Park,1753
1019,53.364115656471995,-6.176809033574621,Doyle's Lane,1754
1020,53.366429976975205,-6.18712407524484,Seapark,1755
1021,53.367209908045595,-6.182853198627809,Dollymount Avenue,1756
1022,53.368629641890294,-6.18223672762254,Park Lawn,1757
1023,53.368129675904505,-6.175390292328191,Mount Prospect Ave,1758
1024,53.3660002227331,-6.17426410843024,The Oaks,1759
1025,53.365972244654294,-6.1877596219230195,Seapark Road,1760
1026,53.3638373979459,-6.18804557985461,Seafield Road Junc,1761
1027,53.3637511873709,-6.1912498353920995,Seafield Road,1762
1028,53.3644067789443,-6.195369375252321,Vernon Avenue,1763
1029,53.3658929687458,-6.19557704044876,Blackheath Park,1764
1030,53.36655142408279,-6.20228141366135,Blackheath Grove,1765
1031,53.363827318106296,-6.205221053233861,Clontarf Castle,1767
1032,53.3688857835725,-6.181940286464711,Park Lawn,1769
1033,53.367083468782205,-6.182813498189571,Dollymount Avenue,1770
1034,53.3660419203349,-6.185247140158791,St Gabriel's Road,1771
1035,53.36501074751679,-6.20502103771957,Clontarf Cemetery,1772
1036,53.366810913445605,-6.20339753583727,Blackheath Park,1773
1037,53.3661362371245,-6.197400064715559,Blackheath Avenue,1774
1038,53.364439983337,-6.1951876537006,Vernon Avenue,1775
1039,53.3638160053906,-6.191968351603769,Seafield Road,1776
1040,53.3653120792186,-6.19104846595943,Seafield Avenue,1777
1041,53.3666136880735,-6.18915998517218,Mount Prospect Ave,1778
1042,53.3823894993434,-6.198171650741269,Brookwood Grove,1782
1043,53.3838032158953,-6.195962181655,McAuley Road,1783
1044,53.384620981286204,-6.19298101335639,Gorsefield Court,1784
1045,53.382596063310395,-6.1916236149297,McAuley Park,1785
1046,53.381994136399,-6.1922354017286905,McAuley Park,1786
1047,53.39161405106529,-6.17880643395268,Millbrook Road,1788
1048,53.39426245742829,-6.17860311918013,Clonrosse Drive,1789
1049,53.39658744534861,-6.18194749011514,O'Tooles GAA,1791
1050,53.3935247615088,-6.17855943972049,Millbrook Road,1792
1051,53.391684304674904,-6.17869818119331,Milbrook Grove,1793
1052,53.3694410695116,-6.17945199515191,Thornhill Lane,1794
1053,53.361503395624894,-6.29686814224352,Rosecourt,1795
1054,53.3817893455832,-6.19117676197816,McAuley Park,1796
1055,53.3831278453886,-6.191721340301981,McAuley Drive,1797
1056,53.3843839100412,-6.19453950864006,McAuley Road,1798
1057,53.3830586828386,-6.19665511759699,Mask Crescent,1799
1058,53.3823067907448,-6.199242471711201,Lady of Mercy Church,1800
1059,53.38239699844149,-6.202245228161019,Brookwood Ave,1801
1060,53.361380323442795,-6.29454414549559,Cabra Road,1802
1061,53.3615635987059,-6.29416119396318,Cabra Road,1803
1062,53.3616973947126,-6.297236037166541,Rosecourt,1804
1063,53.361162703910104,-6.29755786085371,Dunard,1805
1064,53.3629069059108,-6.3026421420981205,Navan Road,1806
1065,53.37441446431,-6.33926288340452,Phoenix Park Avenue,1807
1066,53.3729020091403,-6.333926260973651,Old Racecourse,1847
1067,53.363317546166,-6.30307659409079,Skreen Road,1905
1068,53.3612007620224,-6.29707553938407,Old Cabra Road,1906
1069,53.359904945355204,-6.29382178508832,Glenbeigh Road,1907
1070,53.3586907975506,-6.29125607276839,Cabra Drive,1908
1071,53.3569602631532,-6.28841072316952,Prussia Street,1909
1072,53.3566345096153,-6.288258519152089,Prussia Street,1911
1073,53.3588063320742,-6.291792324736151,Cabra Drive,1913
1074,53.3602157626916,-6.2948160274661,Glenbeigh Road,1914
1075,53.344118360696704,-6.26552532473915,Dame Street,1934
1076,53.343934346218205,-6.268326351574039,Lord Edward Street,1935
1077,53.34308749922071,-6.273151674334789,High Street,1937
1078,53.342977894971,-6.27676060847674,Thomas Street,1938
1079,53.342998268343706,-6.28066466654276,Bridgefoot Street,1939
1080,53.3435386006496,-6.28573434793228,James Street,1940
1081,53.343345401985296,-6.2891814202645895,Steeven's Lane,1941
1082,53.3422549834013,-6.29463172936889,St James Hospital,1942
1083,53.3413732637012,-6.2983463657131304,Mount Brown,1943
1084,53.3406753265063,-6.30361540534036,Old Kilmainham,1944
1085,53.340554784171296,-6.30968740041893,Inchicore Library,1945
1086,53.3401188049337,-6.316357476886769,Richmond Park,1946
1087,53.339817856505,-6.317961195206929,Camac Close,1947
1088,53.3386619960493,-6.32204630155484,Tyrconnell Road,1948
1089,53.3376414796005,-6.3236180803467406,Tyrconnell Park,1949
1090,53.33602104424911,-6.3259941339744605,Oblates Church,1950
1091,53.3331348380343,-6.32912521917044,Blackhorse Luas,1951
1092,53.331709515443706,-6.330036767871141,Lansdowne Valley,1952
1093,53.329994499494,-6.33208562071691,Bluebell Luas,1953
1094,53.3287741741445,-6.334805659054741,Muirfield Drive,1954
1095,53.327945707172795,-6.33791566337677,Carriglea Ind Estate,1955
1096,53.326365417926205,-6.34384709401733,Kylemore Luas,1956
1097,53.3264867532149,-6.34481822747154,Kylemore Luas,1981
1098,53.3272299503099,-6.34202704890604,Kylemore Road Junc,1982
1099,53.3294445318972,-6.33389372947135,Bluebell Luas,1984
1100,53.3329236566384,-6.329448791314549,Blackhorse Luas,1985
1101,53.335355379650494,-6.32723649887246,Tyrconnell Road,1986
1102,53.3362899055545,-6.32593855473873,Oblates Church,1987
1103,53.338260381502295,-6.32288800493356,Hampton Court,1988
1104,53.3397064788474,-6.31898677046974,Emmet Road,1989
1105,53.340472781797,-6.314691573139499,Myra Cottages,1990
1106,53.3406544981538,-6.309112777019731,Inchicore Library,1992
1107,53.3408536613947,-6.3047797266404295,Old Kilmainham,1993
1108,53.341423962847,-6.29938060050005,Mount Brown,1994
1109,53.3426751859688,-6.293218227456911,Basin Street Lower,1995
1110,53.34356007183639,-6.288481953763981,James Street,1996
1111,53.3435710812152,-6.285492741561461,Thomas Street,1997
1112,53.3431396149005,-6.280493772137071,Bridgefoot Street,1998
1113,53.34311923583321,-6.2765897013646,Francis St Junc,1999
1114,53.3433104732332,-6.273653305355491,High Street,2001
1115,53.34377080658879,-6.26944439003136,Lord Edward Street,2002
1116,53.3440412686027,-6.268261941595661,Exchange St Upper,2003
1117,53.3151737463896,-6.220186156196901,RTE,2085
1118,53.3181567845514,-6.21470338209087,Nutley Avenue,2086
1119,53.32060947164371,-6.21282968501495,Ailesbury Road,2087
1120,53.317296689349696,-6.21609017469618,St Vincent's Hosp,2088
1121,53.3153019937698,-6.219745553617849,RTE,2089
1122,53.3347519664071,-6.289750638197139,Coombe Hospital,2094
1123,53.32903746677879,-6.3024707515014695,Crumlin SC,2095
1124,53.32808359048321,-6.3068174910165,Guinness RFC,2096
1125,53.327432754035705,-6.309725806389941,Iveagh Gardens,2097
1126,53.3255615813935,-6.31660046938247,Drimnagh Road,2099
1127,53.32495456521811,-6.31817063885903,Crumlin Hospital,2101
1128,53.32419484607679,-6.3261419021800895,Balfe Road,2102
1129,53.3220826954818,-6.32999241707335,Walkinstown Road,2103
1130,53.3236525793907,-6.3374970776540005,Walkinstown Parade,2105
1131,53.323837685347904,-6.339171213986219,Long Mile Road,2181
1132,53.3239619234595,-6.33518822198745,Walkinstown Parade,2182
1133,53.32170398083979,-6.330547608848231,Walkinstown Shop Cen,2183
1134,53.3229966132193,-6.329146097423049,Drimnagh Road Junc,2184
1135,53.3242587027691,-6.327490489305509,Slievebloom Road,2185
1136,53.326933284343795,-6.31253797965369,Crumlin Road,2186
1137,53.3280452768604,-6.30728442530439,Iveagh Grounds,2187
1138,53.3290169228319,-6.302921981248059,Crumlin College,2188
1139,53.3296953958841,-6.3000724082008395,Crumlin SC,2189
1140,53.33277057197121,-6.292607716197799,Dolphin's Barn,2190
1141,53.3480255718797,-6.31044326467111,Islandbridge Gate,2191
1142,53.347245622938004,-6.31567109288465,UCD Boat Club,2192
1143,53.3463845503896,-6.32345529052173,Garda Rowing Club,2193
1144,53.346193337248295,-6.32840430346689,Military Road,2194
1145,53.346744113807105,-6.337589992731941,St Mary's Hospital,2195
1146,53.34783462512279,-6.3416781514666996,Chapelizod,2196
1147,53.348165553411796,-6.346742214870661,Lucan Road,2197
1148,53.350625141796996,-6.35106328860521,Belgrove Park,2198
1149,53.3502827503688,-6.35295415067495,Kylemore Road,2200
1150,53.3519743826832,-6.35569799515705,Glenaulin,2243
1151,53.350884346707495,-6.3516090743614395,Belgrove Park,2244
1152,53.349463204706204,-6.3482842112899505,Laurence Brook,2245
1153,53.34831130884089,-6.3436423537079,Chapelizod,2246
1154,53.3467528589784,-6.33628291602206,St Mary's Hospital,2247
1155,53.346320931867396,-6.32788863731599,Military Road,2248
1156,53.3465317047291,-6.32113644944895,Garda Rowing Club,2249
1157,53.347438587053205,-6.31533304000409,Salmon Pool,2250
1158,53.3481320367119,-6.3109797923089,Islandbridge Gate,2251
1159,53.3602300963748,-6.23826189020203,East Wall Road,2255
1160,53.35834894123239,-6.23565015244237,West Road,2256
1161,53.356382415654004,-6.23821028357827,Strangford Rd East,2257
1162,53.354653754297296,-6.23801117708436,St Mary's Road,2258
1163,53.3535381306986,-6.2367201906821,Church Road,2259
1164,53.3517785077784,-6.235035259817621,Kilane Road,2260
1165,53.352638546639795,-6.23241589368507,Church Court,2261
1166,53.353522901541005,-6.226595602044769,Merchants Road,2262
1167,53.35110160455629,-6.22092777641819,Alexandra Road,2264
1168,53.3521964621183,-6.21780263684742,Branch Road North,2265
1169,53.3503077646681,-6.2033406278196,Breakwater Rd South,2269
1170,53.3457061206211,-6.195618655047539,Ferry Terminal,2270
1171,53.35018630442679,-6.20363114428484,Alexandra Road,2274
1172,53.3541153587537,-6.23017647349123,East Road,2278
1173,53.3529413710537,-6.2316221987502,Caledon Road,2279
1174,53.352311721584606,-6.23705623867301,Oxford Terrace,2280
1175,53.3536641097573,-6.2367300125504395,St Mary's Road North,2281
1176,53.3548411662399,-6.238529251479781,St Mary's Road,2282
1177,53.3583262112768,-6.235936552432951,Portside Court,2283
1178,53.3424457018012,-6.26979842837399,Werburgh Street,2310
1179,53.338285282665304,-6.270492467038269,Kevin Street,2311
1180,53.338878854577395,-6.27548423467158,St Luke's Avenue,2312
1181,53.338742333057795,-6.278478181544241,Ardee Court,2313
1182,53.3383536836872,-6.280821492738639,Cork Street,2314
1183,53.3375364314403,-6.28523928429942,Brickfield Lane,2315
1184,53.3234185687146,-6.31887655923765,St Mary's Road,2317
1185,53.3219800054757,-6.31884304552818,Somerville Avenue,2318
1186,53.319564746107204,-6.31520038858857,Crumlin Garda Stn,2319
1187,53.316854433306,-6.31676307428071,St Agnes Road,2327
1188,53.31970478932839,-6.315570134108599,St Agnes Road,2328
1189,53.3209014798796,-6.31693402537412,Crumlin Village,2329
1190,53.322148043897705,-6.31928677990811,Sommerville Avenue,2330
1191,53.32457177492579,-6.31779537774902,St Mary's Road,2331
1192,53.3208746366549,-6.33101530032291,Walkinstown Mall,2332
1193,53.3178417645959,-6.33266465395946,Walkinstown Rdbt,2333
1194,53.318147821185796,-6.33269775229581,Walkinstown Road,2378
1195,53.3378334357811,-6.2846417070798495,Marion Villas,2379
1196,53.3385060739033,-6.2801696235629905,Ardee Street,2380
1197,53.3388578109852,-6.278383425917389,St Luke's Avenue,2382
1198,53.33945806826329,-6.2726525825533,Patrick's Cathedral,2383
1199,53.34231511913771,-6.27195136781822,Patrick Street,2385
1200,53.3379073675264,-6.27232481699142,New Street South,2386
1201,53.3365844247214,-6.2728287910104505,Long Lane,2387
1202,53.33445880463879,-6.274386231296071,St. Kevin's Parade,2388
1203,53.3249290292039,-6.2791995212876905,St Clare's Avenue,2389
1204,53.3215286268286,-6.28398983470867,Mount Argus Park,2390
1205,53.3201975133264,-6.2864299556653895,Mount Argus Church,2391
1206,53.3187491224242,-6.2913513018359195,Kimmage Grove,2392
1207,53.3152036113099,-6.29545530463233,Corrib Road,2393
1208,53.31325905692929,-6.29775401743363,Poddle Park,2394
1209,53.3088190678358,-6.302177579451129,Wainsfort,2396
1210,53.3065891639911,-6.30085550798022,College Drive,2397
1211,53.3053439550586,-6.29988458197651,Fortfield,2398
1212,53.305391221795304,-6.30004776457775,Fortfield,2409
1213,53.316339033531705,-6.31781900012653,Cromwellsfort Road,2416
1214,53.316635224113796,-6.322895542274691,Cherry Grove,2417
1215,53.31696995211679,-6.326889959308111,Bigger Road,2418
1216,53.3170799226168,-6.33024779704373,Cherryfield Road,2419
1217,53.3172032128787,-6.33070828115482,Cromwellsfort Road,2431
1218,53.317013466723004,-6.32550738003138,Beechfield Avenue,2432
1219,53.316586230996,-6.32069108254299,Cherry Grove,2433
1220,53.3160265967796,-6.316060201414981,Kimmage Road West,2434
1221,53.3143144024753,-6.31129483322407,Westbrook,2435
1222,53.31370590701899,-6.3089475270515,Lorcan O'Toole Park,2436
1223,53.3126888171586,-6.30251926023373,Brookfield,2437
1224,53.3124895224779,-6.2992554242628005,Kimmage Road Lower,2438
1225,53.313545870896704,-6.29769757870963,Ravensdale Park,2439
1226,53.316400874741795,-6.294326915289731,Aideen Avenue,2440
1227,53.3190611622816,-6.291173721530731,Kimmage Grove,2441
1228,53.320452414387105,-6.28602946037103,Mount Argus Church,2442
1229,53.321892178089,-6.28364499642878,Brookfield,2443
1230,53.3242977354574,-6.279675293211691,Mount Argus Road,2444
1231,53.31930924721729,-6.30414780696657,Cashel Road,2448
1232,53.3202310999915,-6.307668789242481,Scoil Una Naofa,2450
1233,53.3199884645823,-6.308939282641879,Armagh Road,2465
1234,53.32065423451671,-6.30645117635707,Scoil Colm,2466
1235,53.3192341833908,-6.303925628056719,Cashel Road,2467
1236,53.3186815798075,-6.2891475010922,Larkfield Park,2471
1237,53.3176779065515,-6.285600295348691,Harolds Cross NS,2472
1238,53.317888729105704,-6.28338538434528,Clareville Road,2473
1239,53.3187560070804,-6.28181952888636,Westfield Road,2474
1240,53.318865886941204,-6.28008893179154,Kenilworth Park,2475
1241,53.319043808900204,-6.27746997537537,Kenilworth Square N,2476
1242,53.3198779433131,-6.27423910941842,Kenilworth Road,2477
1243,53.320577591066,-6.26979766918624,Grosvenor Road,2478
1244,53.3202340044305,-6.2702769046102205,Grosvenor Road,2479
1245,53.3197445023017,-6.27433455790177,Kenilworth Road,2480
1246,53.318738071543706,-6.27808269931123,Harolds Cross Road,2481
1247,53.31892063108379,-6.281392626657139,Clareville Road,2482
1248,53.317597986051105,-6.28441772237934,Larkfield Grove,2483
1249,53.318546835423696,-6.28915289128921,Larkfield Park,2484
1250,53.3197915765421,-6.29133967375744,Sundrive Road,2485
1251,53.3210753974058,-6.29311972472242,Blarney Park,2486
1252,53.3218163769719,-6.29528179712857,Stannaway Road,2487
1253,53.320355428652896,-6.2987174578255996,Kilfenora Road,2488
1254,53.319415201978394,-6.300856321583249,Clonfert Road,2489
1255,53.3195465424543,-6.309467112598259,Captain's Road,2490
1256,53.3180276552357,-6.30820627655293,Captain's Avenue,2491
1257,53.3163063601097,-6.307884118914031,Stannaway Ave,2492
1258,53.31833047843679,-6.308644598880349,Captain's Road,2493
1259,53.319696673756894,-6.300424843606581,Stannaway Road,2494
1260,53.321219910630205,-6.2969417818012,Ferns Road,2495
1261,53.3219677485368,-6.29392474193039,Eamonn Ceannt Park,2496
1262,53.3203299516162,-6.2919035835723305,Sundrive Park,2497
1263,53.3482435389402,-6.2501118775865,Custom House Quay,2498
1264,53.3481278261786,-6.24712750979294,Custom House Quay,2499
1265,53.3477883380486,-6.24237993101825,Beckett Bridge,2500
1266,53.347375911187704,-6.2363586988084805,New Wapping Street,2501
1267,53.3528641016142,-6.225811747283889,East Wall Road,2508
1268,53.3328912744997,-6.2753804564168,Clanbrassil Street,2634
1269,53.334250812364395,-6.27492017787533,Lombard Street West,2635
1270,53.3365804387911,-6.27317433216028,New Street South,2636
1271,53.3458840623229,-6.2938560499996195,Heuston Station,2637
1272,53.345658753708,-6.29695909835277,St Johns Road West,2638
1273,53.342044525614995,-6.308892572173789,Inchicore Road,2640
1274,53.34196600729901,-6.31541363492024,Camac Court,2641
1275,53.341182136262894,-6.319739696434901,Grattan Crescent,2642
1276,53.341532260217704,-6.3209874548759295,Sarsfield Road,2643
1277,53.3419905931301,-6.32738226562616,Sarsfield Medical,2644
1278,53.3416965343725,-6.330772870229031,Lally Road,2645
1279,53.3414944858325,-6.33367925990098,Decies Road,2646
1280,53.3406470674039,-6.33800739822255,Markievicz Park,2647
1281,53.339723021016205,-6.3426537010392305,Ramillies Road,2648
1282,53.33911057673,-6.3458010412898895,Thomond Road,2649
1283,53.337765557582294,-6.34667902336197,Landen Road,2650
1284,53.33884594969211,-6.34810890913172,Kylemore Avenue,2652
1285,53.3402347651841,-6.34844568463053,Ballyfermot Crescent,2653
1286,53.3412987302067,-6.34868990718235,Ballyfermot Road,2654
1287,53.34213815921821,-6.35284757646732,Ballyfermot Parade,2655
1288,53.3426234944772,-6.35871610719473,Ballyfermot,2656
1289,53.341317060878,-6.3617548659033,Clifden Road,2657
1290,53.3391624351811,-6.36128182324465,Oranmore Road,2658
1291,53.3370212365377,-6.3604779482620195,Raheen Park Estate,2659
1292,53.335775038315894,-6.36070594347996,Cherry Orchard Ave,2660
1293,53.3354860616891,-6.3651917772485005,Cherry Orchard Drive,2661
1294,53.3367935226576,-6.3700971770845305,Cherry Orchard Way,2662
1295,53.3369139961334,-6.37036287855571,Croftwood Crescent,2663
1296,53.3356011990015,-6.36506724567254,Cherry Orchard Drive,2664
1297,53.3358803626012,-6.360521710925171,Croftwood Park,2665
1298,53.337600702340794,-6.360786086631401,Clifden Drive,2666
1299,53.34069762827,-6.36180864778953,Clifden Road,2667
1300,53.3429828349145,-6.36328297232268,Ballyfermot Comm Cen,2668
1301,53.3403899393825,-6.367557189509309,Spiddal Park,2670
1302,53.3433589409064,-6.3677741773581,Cleggan Park,2672
1303,53.3434635062593,-6.36819070772056,Cleggan Park,2688
1304,53.343105999965495,-6.36374383192321,Blackditch Drive,2689
1305,53.342687616101706,-6.35880375521615,Ballyfermot,2696
1306,53.34227746609779,-6.35317261042737,Ballyfermot Parade,2697
1307,53.3412966526,-6.34853980731355,Kylemore Road,2700
1308,53.3401698049081,-6.34829801891186,Ballyfermot Crescent,2701
1309,53.33810329990501,-6.34770212371671,Kylemore Avenue,2702
1310,53.3382847108033,-6.346523787325809,Thomond Road,2703
1311,53.3392390804214,-6.34534554835472,Decies Road,2704
1312,53.340033275471896,-6.341695560994589,Garryowen Road,2706
1313,53.3418337142041,-6.33287006533028,Landen Road,2708
1314,53.3429927814368,-6.33348566501729,Longmeadows,2709
1315,53.3421150911736,-6.3395122079452895,Ballyfermot Road,2710
1316,53.3417835326013,-6.34152251272882,Markievicz Park,2711
1317,53.3424598481867,-6.345566259838309,St Raphael's NS,2712
1318,53.342480653470496,-6.347067297963901,St Raphael's NS,2713
1319,53.341905112315295,-6.341863213731611,Markievicz Park,2714
1320,53.342551710883704,-6.33859413280969,O'Hogan Road,2715
1321,53.3428406256604,-6.33224505599931,Sarsfield Road,2716
1322,53.357243311734706,-6.23746864709223,Seaview Avenue,2717
1323,53.34228226067229,-6.327671217200461,St Mary's Avenue,2718
1324,53.3416457682995,-6.32011193943821,Woodfield Place,2719
1325,53.352055698770705,-6.2331160052948205,Church Road,2720
1326,53.3432718551678,-6.310511084917571,Chapelizod Bypass,2721
1327,53.3434371042603,-6.31139066326813,Chapelizod Bypass,2722
1328,53.32381438971311,-6.3304201795944905,Long Mile Road,2726
1329,53.3237589731435,-6.332884293285531,Drimnagh Castle,2727
1330,53.321370233893205,-6.339477197893269,Walkinstown Park,2728
1331,53.3191106120977,-6.33599249403808,Walkinstown Park Est,2729
1332,53.3179354289307,-6.33422202603394,Walkinstown Comm Cen,2730
1333,53.3182607318133,-6.33498987366934,Walkinstown Avenue,2774
1334,53.32277702581321,-6.34110386134688,Ep Mooney Park,2775
1335,53.319169952024495,-6.336380452226419,Walkinstown Park Est,2777
1336,53.3240244462339,-6.331943200273599,Drimnagh Castle,2778
1337,53.3285299793468,-6.24626462104787,Leeson Village,2795
1338,53.332331237708104,-6.2105077875188694,Strand Road,2804
1339,53.3430357114115,-6.249859576930269,Pearse Station,2809
1340,53.34079491112921,-6.250897489194231,Merrion Sq West,2810
1341,53.3393595021506,-6.25230781932256,Merrion Street,2811
1342,53.3319275451,-6.26223625672881,Charlemont Street,2812
1343,53.328711768324204,-6.2586735818742,Ranelagh Road,2813
1344,53.32603377234321,-6.255629951538791,Ranelagh Luas,2814
1345,53.315851003149994,-6.24526859253124,Milltown Road,2815
1346,53.314265750710895,-6.24626416791295,Glenmalure Square,2816
1347,53.3111523689252,-6.2478625546648,Alexandra College,2817
1348,53.3111657582691,-6.24816215938318,Alexandra College,2898
1349,53.316370016608495,-6.24511221392701,Garrynure,2899
1350,53.325936497499505,-6.25573900995997,Ranelagh Luas,2900
1351,53.32734309700971,-6.258504127533421,Ranelagh Road,2901
1352,53.328887478905294,-6.259011743571611,Northbrook Road,2902
1353,53.3319676293818,-6.26251991082798,Charlemont Street,2903
1354,53.3389141422916,-6.373350105181331,Blackditch Road,2906
1355,53.340255268087,-6.37217273806717,Orchard Lawns,2907
1356,53.339695145620006,-6.367358468337691,Spiddal Park,2908
1357,53.3374092423353,-6.373722729852389,Saint Ultans School,2909
1358,53.34106598939421,-6.37164626600922,Spiddal Road,2910
1359,53.3387440732575,-6.37340162942583,Cherry Orchard Park,2911
1360,53.344630477463795,-6.2673669375728895,Parliament Street,2912
1361,53.3109551920936,-6.27378867433998,Orwell Road,2914
1362,53.3094079625316,-6.27370103426306,Zion Road,2915
1363,53.307637291602,-6.274942974741419,Bushy Park Road,2916
1364,53.3074870178511,-6.27760514891508,Meadowbank,2917
1365,53.307371417565896,-6.28080613465577,Riversdale Avenue,2918
1366,53.3962510934869,-6.30254839676734,McKee Avenue,2957
1367,53.3944049018217,-6.30102797293345,McKee Avenue Est,2958
1368,53.3072971097857,-6.28313508480275,Bushy Park Road,2985
1369,53.3075980456754,-6.276580248281441,Meadowbank,2986
1370,53.3083806553168,-6.273517386557421,Zion Road,2988
1371,53.3080411944876,-6.27055979697922,Rostrevor Terrace,2989
1372,53.3062138216965,-6.26727234478224,Orwell Gardens,2990
1373,53.306034817870206,-6.267324611230809,Orwell Road,2999
1374,53.3078619717015,-6.27059705445562,Rostrevor Terrace,3000
1375,53.3102889379646,-6.27371050695184,Orwell Mews,3001
1376,53.3112213398196,-6.2741681328931,Washerwomans Lane,3002
1377,53.3254823570809,-6.297717801738041,Slane Road,3355
1378,53.3248516316121,-6.30076039350032,Bangor Road,3356
1379,53.3145538607559,-6.246297381847401,Glenmalure Square,3562
1380,53.3316839465215,-6.29455799199736,Rutland Avenue,3952
1381,53.3466406639927,-6.29208351412561,Heuston Station,4320
1382,53.3734731712346,-6.3112546684699105,Ashington Park,4322
1383,53.381712237060206,-6.30344250600003,Berryfield Road,4363
1384,53.3929113883209,-6.322529185436309,Cappagh Hospital,4364
1385,53.397265200243204,-6.292357491393269,Oakwood Road,4369
1386,53.3659285745547,-6.292679464771121,Drumcliffe Drive,4371
1387,53.38204848195371,-6.27610007085957,Fitzmaurice Road,4372
1388,53.3924080528234,-6.2927323917350995,Clancy Avenue,4376
1389,53.3944892873151,-6.289942443662441,Sycamore Road,4377
1390,53.350845886274996,-6.25350530531679,Mabbot Street,4380
1391,53.374964465749294,-6.21967769392797,Donnycarney Church,4382
1392,53.3963183083127,-6.211132174111249,Coolock Library,4383
1393,53.357680128024995,-6.2427090265571,Bayview Avenue,4384
1394,53.3885313843221,-6.19896467953387,St Brendan's Church,4385
1395,53.37804914817921,-6.175161594504959,Watermill Drive,4386
1396,53.3987311185581,-6.20600807642709,Glin Road,4388
1397,53.332526779460494,-6.32102588043287,Galtymore Park,4399
1398,53.33437391802529,-6.31943674566524,Drimnagh CU,4400
1399,53.328088816076296,-6.33851063578029,Carriglea Ind Est,4406
1400,53.3465291195087,-6.2861851185728,Victoria Quay,4407
1401,53.348333361254504,-6.301103309875599,Phoenix House,4408
1402,53.346164394304296,-6.29271836681323,Heuston Station,4413
1403,53.350520792401106,-6.250334044096,Connolly Train Stn,4415
1404,53.3772074698895,-6.248563718842,Griffith Downs,4432
1405,53.33586837795279,-6.289255478966349,Coombe Hospital,4434
1406,53.325934162257795,-6.2076828801963195,Strand Road,4451
1407,53.32065484495671,-6.21405869627381,Ailesbury Road,4455
1408,53.339914404497605,-6.26569595730069,Whitefriars St,4456
1409,53.3604500535116,-6.3081186945333805,Military Cemetery,4458
1410,53.3884194531001,-6.1897830469179,Glenwood Road,4466
1411,53.35678419658029,-6.238028448356349,West Road,4468
1412,53.3542069664855,-6.23029286013619,East Road,4469
1413,53.3763621447136,-6.17828497416807,St Anne's Drive,4472
1414,53.391304529952095,-6.2941297781210395,McKee Road,4479
1415,53.3646144110335,-6.286901792520959,Cabra PO,4481
1416,53.3655416312196,-6.289509283896639,Naomh Fionnbarra GAA,4485
1417,53.3469617101298,-6.25710372145975,Hawkins Street,4494
1418,53.3464120071589,-6.25700598616108,Hawkins Street,4495
1419,53.3668037534439,-6.30426041382602,Nephin Road,4498
1420,53.3615685135468,-6.28322259481478,Dowth Avenue,4499
1421,53.3640474420477,-6.283723968886731,Faussagh Road,4500
1422,53.3647523878198,-6.28712165248366,Faussagh Road,4501
1423,53.3633395576314,-6.282625479376461,Cabra PO,4502
1424,53.3758232387124,-6.31727898906811,Royal Canal Avenue,4504
1425,53.3559717005551,-6.252454393150249,Summerhill,4509
1426,53.353937601123896,-6.25779555261286,Parnell Street,4513
1427,53.3399639859464,-6.29721608729655,St James's Hospital,4514
1428,53.340705164449304,-6.293732431434691,St James's Dental,4515
1429,53.3399500753875,-6.296871235498441,St James's Hospital,4516
1430,53.3625824999162,-6.2411399295346905,Fairview Strand,4518
1431,53.3443010558745,-6.26017105109329,College Green,4521
1432,53.3442624890487,-6.260608179879499,College Green,4522
1433,53.3691463221764,-6.317361855249651,Kinvara Avenue,4523
1434,53.37167609732099,-6.31574422816834,Ashington Avenue,4524
1435,53.3734481351448,-6.311390923726409,Ashington Park,4525
1436,53.3721188871373,-6.315275888596309,Ashington Avenue,4526
1437,53.328896078875296,-6.26453649020507,Grove Park,4528
1438,53.340322533493,-6.255467243215031,Kildare Street,4530
1439,53.3757281132183,-6.316906984577759,Royal Canal Avenue,4538
1440,53.3816733488144,-6.310839952756879,Glenties Park,4539
1441,53.3866641413239,-6.29709664327809,Finglas Road,4542
1442,53.386249213274205,-6.2969929338737,Wellmount Road,4543
1443,53.3984528103588,-6.3075887967478605,Plunkett Avenue,4546
1444,53.386235918282296,-6.29606135967967,Finglas Place,4548
1445,53.401668971125204,-6.18097883463289,Clare Hall,4563
1446,53.3885290912024,-6.312598187635301,Finglas West Church,4583
1447,53.3896860703086,-6.29849455937189,Finglas Village,4592
1448,53.402504147676794,-6.1768072127282405,Temple View Rise,4593
1449,53.399244681808206,-6.1635319436012805,Donaghmede Rdbt,4594
1450,53.4021399240889,-6.1729725878937005,Templeview Avenue,4595
1451,53.4023376157449,-6.1770850523742,Temple View Rise,4596
1452,53.384966476356404,-6.2653384062863395,DCU,4680
1453,53.404712712237796,-6.27959063627794,Balbutcher Drive,4683
1454,53.400248644460106,-6.205312586710839,Glin Road,4692
1455,53.397474435997104,-6.208512158355559,Barryscourt Road,4693
1456,53.3934094424358,-6.20357043697057,Coolock Drive,4694
1457,53.39298307682321,-6.197348226649099,Greencastle Road,4695
1458,53.3943075517186,-6.20232964616665,Adare Road,4696
1459,53.393089240714,-6.20379443601977,Bunratty Avenue,4697
1460,53.3949426394074,-6.211099654304809,Adare Avenue,4698
1461,53.397537764250096,-6.208539574160089,Stardust Memorial Pk,4699
1462,53.4001332285194,-6.20540767893564,DCC Sports Centre,4700
1463,53.3466218968461,-6.26030184265729,Aston Quay,4720
1464,53.352115616113004,-6.26105453403103,O'Connell St Upper,4725
1465,53.3825097656916,-6.2025711995350195,Gracefield Road,4782
1466,53.3969347694167,-6.29250606231354,Oakwood Road,4788
1467,53.39226726340279,-6.32082537531735,Avila Park,4793
1468,53.39852468516621,-6.15996872729832,Old Grange Abbey,4804
1469,53.398374407504605,-6.15314770625991,Grange Abbey Drive,4806
1470,53.3381491414764,-6.279102758846849,Ardee Street,4854
1471,53.3346017677034,-6.279305648799389,O'Donovan Road,4855
1472,53.3319659178094,-6.28351081511284,Donore Avenue,4856
1473,53.3341212960203,-6.28276357298051,Rutledge Terrace,4857
1474,53.3951675776447,-6.29086258474813,Sycamore Park,4890
1475,53.3931060244641,-6.28687033494162,Grove Road,4891
1476,53.3628575086005,-6.2828552282631,Offaly Road,4934
1477,53.36409572297179,-6.283331347470031,St Attracta Road,4935
1478,53.3613520605835,-6.28317119636613,Newgrange Road,4936
1479,53.3926718421315,-6.300510594398889,McKee Avenue,4937
1480,53.390861544148905,-6.29835745694139,Finglas Village,4938
1481,53.3569939338404,-6.25843708602609,Mountjoy Square,4962
1482,53.402320989219,-6.29141806931841,Lanesborough Estate,4985
1483,53.33976301566171,-6.27758105966666,The Coombe,5025
1484,53.3204303650202,-6.305244168817261,Armagh Road,5026
1485,53.3971670149031,-6.224029240613571,Dundaniel Road,5060
1486,53.3956965209063,-6.2248724258515,Kilbarron Drive,5061
1487,53.338173303305396,-6.272689493526371,Kevin Street,5097
1488,53.3389824385794,-6.275810436751129,Newmarket Street,5099
1489,53.3416887628656,-6.33021750067863,Lally Road,5134
1490,53.351124392737596,-6.24553242137239,Mayor Street Lower,5140
1491,53.3727095347377,-6.30620502634173,Marian School,5144
1492,53.377196797629395,-6.32675429973097,Rathbourne Avenue,5145
1493,53.371823448544504,-6.305834408569161,Marian College,5147
1494,53.324945735973394,-6.30105690121982,Saul Road,5148
1495,53.3290866192038,-6.323743357260691,Errigal Road,5149
1496,53.3982344046185,-6.156883321233059,Grange Abbey Drive,5154
1497,53.3983316747233,-6.155615879125099,Grange Abbey Grove,5155
1498,53.398169064006794,-6.15381829364774,Grange Abbey Grove,5157
1499,53.398495599076796,-6.1592481298857304,Grange Abbey Cresent,5160
1500,53.3957088554233,-6.225097474260041,Dundaniel Road,5174
1501,53.3459563040653,-6.25780560959638,Fleet Street,5192
1502,53.3529076424333,-6.2605115316502,Parnell Street,6004
1503,53.401115776859996,-6.26704264271178,Balbutcher Lane,6016
1504,53.40265434240621,-6.27335698367751,Galluan Road,6017
1505,53.33806915595671,-6.37664091663013,Barnville Green,6020
1506,53.338201252727096,-6.37710142200168,Cherry Orchard Ave,6021
1507,53.337299435808795,-6.37886256841241,Cedar Brook Place,6023
1508,53.33737273010679,-6.37896490433468,Cedar Brook Place,6024
1509,53.3359186522612,-6.3791101484339805,Barnville Walk,6025
1510,53.3355919772503,-6.379542983085259,Barnville Walk,6026
1511,53.334554621627206,-6.37860629728979,Park West Station,6027
1512,53.3345956536871,-6.378980130724861,Park West Station,6028
1513,53.3325082489397,-6.374855125510201,Park West Hotel,6029
1514,53.3329468146005,-6.3760396540213,Park West Hotel,6030
1515,53.32014810730679,-6.264981579061849,Church Avenue,6042
1516,53.3216863093805,-6.33185426991484,Sisters of Charity,6056
1517,53.321461060276604,-6.33117254663599,Kilnamanagh Road,6057
1518,53.35022442827379,-6.260185175380469,The Spire of Dublin,6059
1519,53.390282379829294,-6.31709957382233,Ratoath Drive,6068
1520,53.340885209689596,-6.33703699120921,O'Hogan Road,6070
1521,53.353090589228,-6.26011349990353,Parnell Street,6071
1522,53.335894932757796,-6.25755504246774,Earlsfort Terrace,6074
1523,53.397241781650706,-6.22422162082612,Oscar Traynor Rd,6078
1524,53.399407980315,-6.1636301827989195,Elmfield,6079
1525,53.3904626683414,-6.31140907952838,Kildonan Road,6080
1526,53.325830249256704,-6.3216341402826,Drimnagh PO,6094
1527,53.4001273805798,-6.1842178541854205,Belcamp Lane,6115
1528,53.3863727059716,-6.27430166369757,St Pappin's Road,6122
1529,53.3998824003166,-6.276837922983191,Poppintree Parade,6125
1530,53.400870379798604,-6.20063926502296,Ferrycarrig Park,6130
1531,53.3235298985586,-6.34289108030767,Parkmore Estate,6140
1532,53.323732530827996,-6.34324351223157,Walkinstown Avenue,6142
1533,53.402250754217704,-6.265357188791441,Santry Cross,6182
1534,53.401192039063204,-6.26672371806463,Ballymun,6238
1535,53.398042032260506,-6.27139328390733,Dolmen Court,6239
1536,53.40181592283,-6.27940673236032,Crannogue Road,6241
1537,53.3503940811876,-6.238667569588291,Sheriff Street,6251
1538,53.3479648140172,-6.247044074718291,North Wall Quay,6252
1539,53.4039584880706,-6.28151614111667,Balbutcher Drive,6253
1540,53.395275371856,-6.29085826487389,Sycamore Road,6273
1541,53.4060942638685,-6.291928650064301,Seagrave Terrace,6276
1542,53.4014745100187,-6.16241320523739,Hole in the Wall Rd,6315
1543,53.4029153534792,-6.1573427328762405,Park Avenue,6316
1544,53.40284222860289,-6.15145015819455,Clongriffin Station,6317
1545,53.402313814747494,-6.15099179017818,Clongriffin,6318
1546,53.402662941089204,-6.153804184501599,Grange Lodge Avenue,6319
1547,53.401596559086,-6.162167310136749,Hole in the Wall Rd,6320
1548,53.4059486027501,-6.29179911788339,Jamestown Road,6361
1549,53.4065006333519,-6.289550913798929,Mayeston Lawn,6362
1550,53.4061452136716,-6.287955788020249,Hampton Wood,6363
1551,53.4038763115708,-6.29144598182622,Hampton Wood Road,6367
1552,53.3809280789927,-6.315980349094981,Rathvilly Drive,7009
1553,53.381682780385894,-6.316596952915879,Rathvilly Drive,7010
1554,53.342954142234106,-6.3153746792035,Memorial Gardens,7012
1555,53.3765942443059,-6.31204803252832,Glasnevin Park,7027
1556,53.3765158491821,-6.310953907282519,Royal Canal Centre,7028
1557,53.32506078210421,-6.3186918941508,St Mary's Road,7043
1558,53.39740936974629,-6.2324855678717395,Aulden Grange,7044
1559,53.3183737112471,-6.213583567021701,Nutley Lane,7053
1560,53.347910305250394,-6.292873903750861,Park Gate Street,7078
1561,53.398187000209106,-6.27209420381953,Dolmen Court,7092
1562,53.3975490018296,-6.22917140050016,Astro Park,7112
1563,53.4025410678893,-6.264924263946769,Northwood Avenue,7113
1564,53.3930727351748,-6.22069621903409,Cromcastle Green,7130
1565,53.4072962623839,-6.27799727211912,IKEA,7149
1566,53.3222436261031,-6.33507498194386,Walkinstown Drive,7153
1567,53.3208800215017,-6.333972232972781,Walkinstown Green,7154
1568,53.40451121827889,-6.276214668665661,Balbutcher Way,7191
1569,53.403822313411894,-6.27518970826941,Balbutcher Way,7192
1570,53.3966454003231,-6.1828021788561,O'Tooles GAA,7199
1571,53.4028470810356,-6.154668538969441,Grange Lodge Avenue,7236
1572,53.4026465755828,-6.1521655249907505,Clongriffin,7245
1573,53.4027610322157,-6.157244121893059,Park Avenue,7246
1574,53.388877660043605,-6.2753580188399605,Ballyknockan Road,7220
1575,53.4061059174926,-6.280842979689409,IKEA,7276
1576,53.406000828597605,-6.28041102974887,St Margaret's Road,7277
1577,53.3061612403332,-6.283525796438901,Westbourne Road,7293
1578,53.3685007698416,-6.239588676393981,Griffith Court,7320
1579,53.332999533328504,-6.24704223018875,Mespil Hotel,7333
1580,53.332407936449606,-6.24654096192536,Burlington Road,7339
1581,53.3342559531199,-6.246299977314661,Wilton Terrace,7340
1582,53.3954603017448,-6.229543840406199,Castletimon Park,7358
1583,53.331623066379606,-6.245732325832161,Burlington Road,7370
1584,53.33929849396439,-6.25059831596535,Merrion Sq South,7385
1585,53.3394724671638,-6.250816458038191,Merrion Sq South,7387
1586,53.3395130189085,-6.251130167928831,Merrion Sq South,7390
1587,53.33909074784229,-6.24991601709792,Merrion Sq South,7391
1588,53.3464604153825,-6.260939259225401,Aston Quay,7392
1589,53.3761089442938,-6.321611489772559,Crescent Park,7396
1590,53.3476940317385,-6.2433000614634295,Guild Street,7397
1591,53.3474994233065,-6.2398533634062305,Convention Centre,7398
1592,53.3484935313095,-6.22686447149742,The Point,7399
1593,53.3398919247649,-6.278416853917871,The Coombe,7412
1594,53.33959770059871,-6.275470244223009,Dean Street,7413
1595,53.3251590796589,-6.31101668308184,Windmill Road,7414
1596,53.3856751986941,-6.28828123187409,Ballygall Parade,7423
1597,53.38801173125239,-6.29202130024751,Ballygall Place,7424
1598,53.3888786457005,-6.292933788469861,Glasanaon Road,7425
1599,53.385456377950604,-6.28806450586451,Ballygall Parade,7426
1600,53.3877967874413,-6.2920750095152105,Ballygall Place,7427
1601,53.389089764119994,-6.29324107427688,Ballygall Road Junc,7428
1602,53.379867681014204,-6.2800663646627495,Griffith Avenue,7430
1603,53.3797291453918,-6.27918507842538,Griffith Ave Ext,7431
1604,53.3431789302767,-6.31538083570425,Memorial Gardens,7435
1605,53.3319362078043,-6.29774608887869,Herberton Drive,7438
1606,53.3323622619428,-6.29799939234776,Herberton Road,7439
1607,53.3463358924194,-6.27838250402172,Arran Quay,7453
1608,53.33500797425489,-6.29885506063358,New Ireland Road,7454
1609,53.33557454394,-6.298877559165269,Herberton Road,7455
1610,53.3900665526349,-6.29052570608456,Collins Drive,7458
1611,53.367776196242296,-6.17402284952641,Baymount Park,7469
1612,53.37925690878139,-6.293243555450459,Tolka Valley Green,7471
1613,53.3374114730701,-6.37322709729874,Saint Ultans School,7507
1614,53.3508964564954,-6.296795356217,Phoenix Park,7513
1615,53.3539918288459,-6.2303318195970405,Bargy Road,7514
1616,53.40207591374661,-6.171727025254801,Belmayne,7516
1617,53.357170301515396,-6.25820453691996,Mountjoy Square,7555
1618,53.34683413747021,-6.2545254567125,Poolbeg St,7564
1619,53.348256082692004,-6.25587930321622,Eden Quay,7568
1620,53.3504505082384,-6.25596996553252,Gardiner Street,7569
1621,53.3867756476317,-6.2587249584886395,DCU Helix,7571
1622,53.3338326357244,-6.2652970617047,Grantham Street,7577
1623,53.342460100726,-6.26460140803191,Fade Street,7578
1624,53.3382457820909,-6.26591384363467,Redmond's Hill,7579
1625,53.34415856149771,-6.26334590761396,Dame Street,7581
1626,53.344206378155,-6.261691848854509,Dame Street,7582
1627,53.342037080113,-6.253474879587739,National Gallery,7585
1628,53.3419704651789,-6.253222288424849,National Gallery,7586
1629,53.344457928225495,-6.251228159789809,Science Gallery,7587
1630,53.344996604494106,-6.25425507651359,Pearse Street,7588
1631,53.348890153038795,-6.25682977423594,Abbey Street,7591
1632,53.3528378344718,-6.2138099693153706,Bond Drive,7601
1633,53.35250813882811,-6.26393782900767,Granby Place,7615
1634,53.3469020724158,-6.2622580775240895,Bachelors Walk,7622
1635,53.3469141110555,-6.22945342719193,Br an Phoirt Thoir,7623
1636,53.3954073829817,-6.31086745348341,Barry Avenue,7661
1637,53.34682214393371,-6.25677897149017,Poolbeg Street,7665
1638,53.353782113034605,-6.2526942059461,Gloucester Lane,7671
1639,53.37242561922629,-6.29888210640204,Broombridge Station,7672
1640,53.3724647622262,-6.2991059827856795,Broombridge,7686
1641,53.40637876545279,-6.27607899033759,IKEA,7697
1642,53.4063848668136,-6.2746347975114,IKEA,7698
1643,53.3836896715855,-6.31614194737193,Rathvilly Road,7701
1644,53.3772555322715,-6.3098724796235,River Road,7702
1645,53.377331911180896,-6.309553808337129,River Road,7703
1646,53.37155351447829,-6.2534396446411,DCU St Patrick’s,7602
1647,53.371576725454,-6.253183203888299,St Patrick's College,7603
1648,53.3485301935152,-6.259878655487849,Virtual Stop 1,1
1649,53.3030739016846,-6.322376751127441,Wellington Cottages,100
1650,53.2932464974253,-6.3100408739183305,Woodbrook Park,946
1651,53.312103887767805,-6.3005764406037805,Kimmage Road West,1090
1652,53.3124406081649,-6.3052905773807595,Whitehall Road,1091
1653,53.3107438359032,-6.309229696890321,Whitehall Gardens,1092
1654,53.3099785512697,-6.3116760846972095,Priory Walk,1093
1655,53.3090595750966,-6.314698697188,Kimmage Manor Way,1094
1656,53.306914174216004,-6.31999028759745,Wellington Road,1095
1657,53.3060442732979,-6.3214049672437795,Wellington Road,1096
